$GPRMC,085546.910,A,5311.7428,N,00547.5022,E,0.00,120.45,030605,,*0F
$GPRMC,085558.910,A,5311.7422,N,00547.5032,E,1.72,153.87,030605,,*05
$GPRMC,085648.907,A,5311.7209,N,00547.5209,E,1.72,153.87,030605,,*04
$GPRMC,085711.905,A,5311.7110,N,00547.5290,E,1.72,153.87,030605,,*00
$GPRMC,085749.903,A,5311.7454,N,00547.5002,E,0.00,5.86,030605,,*00
$GPRMC,085801.902,A,5311.7444,N,00547.4993,E,0.00,5.86,030605,,*03
$GPRMC,085836.900,A,5311.7463,N,00547.5013,E,0.60,338.50,030605,,*00
$GPRMC,090039.893,A,5311.7464,N,00547.5004,E,0.46,164.57,030605,,*01
$GPRMC,090051.892,A,5311.7460,N,00547.5029,E,0.00,59.10,030605,,*3B
$GPRMC,090140.889,A,5311.7445,N,00547.5080,E,1.03,174.24,030605,,*0F
$GPRMC,090229.886,A,5311.7536,N,00547.5005,E,0.62,161.63,030605,,*05
$GPRMC,090254.884,A,5311.7448,N,00547.5007,E,0.00,63.14,030605,,*30
$GPRMC,090331.882,A,5311.7427,N,00547.4961,E,0.38,335.95,030605,,*07
$GPRMC,090343.882,A,5311.7419,N,00547.4982,E,0.00,45.46,030605,,*33
$GPRMC,090420.879,A,5311.7412,N,00547.4924,E,0.28,81.36,030605,,*37
$GPRMC,090509.876,A,5311.7520,N,00547.4942,E,0.00,47.74,030605,,*34
$GPRMC,090521.876,A,5311.7521,N,00547.4928,E,0.00,47.74,030605,,*33
$GPRMC,090533.875,A,5311.7522,N,00547.4945,E,0.00,47.74,030605,,*3B
$GPRMC,090610.873,A,5311.7490,N,00547.4930,E,0.00,4.31,030605,,*03
$GPRMC,090724.868,A,5311.7414,N,00547.4972,E,0.00,4.31,030605,,*05
$GPRMC,090736.867,A,5311.7408,N,00547.4973,E,0.00,4.31,030605,,*05
$GPRMC,090801.866,A,5311.7449,N,00547.4933,E,0.00,4.31,030605,,*0E
$GPRMC,090813.865,A,5311.7431,N,00547.4962,E,0.46,335.35,030605,,*02
$GPRMC,090850.863,A,5311.7453,N,00547.4998,E,0.37,63.38,030605,,*39
$GPRMC,090939.860,A,5311.7433,N,00547.4993,E,0.42,166.37,030605,,*00
$GPRMC,094413.735,A,5311.7330,N,00547.5147,E,0.00,302.48,030605,,*04
$GPRMC,094438.733,A,5311.7346,N,00547.5092,E,0.00,56.84,030605,,*31
$GPRMC,094503.732,A,5311.7332,N,00547.5043,E,0.63,270.52,030605,,*0E
$GPRMC,094540.730,A,5311.7391,N,00547.4944,E,0.28,91.47,030605,,*3B
$GPRMC,094629.727,A,5311.7367,N,00547.4993,E,0.00,50.03,030605,,*35
$GPRMC,094654.725,A,5311.7323,N,00547.5020,E,0.00,9.19,030605,,*0A
$GPRMC,094738.722,A,5311.7292,N,00547.5177,E,0.00,356.88,030605,,*0F
$GPRMC,094750.722,A,5311.7318,N,00547.5118,E,0.00,352.72,030605,,*0A
$GPRMC,094815.720,A,5311.7328,N,00547.5139,E,2.63,117.51,030605,,*03
$GPRMC,094855.718,A,5311.7416,N,00547.6091,E,3.70,111.28,030605,,*0D
$GPRMC,095010.713,A,5311.7655,N,00547.8459,E,7.75,126.84,030605,,*06
$GPRMC,095215.706,A,5311.5811,N,00547.9020,E,4.55,196.07,030605,,*03
$GPRMC,095304.703,A,5311.4664,N,00547.8657,E,9.59,190.04,030605,,*09
$GPRMC,095316.702,A,5311.4405,N,00547.8566,E,6.67,187.78,030605,,*00
$GPRMC,095328.701,A,5311.4190,N,00547.8509,E,7.26,186.61,030605,,*03
$GPRMC,095340.701,A,5311.3939,N,00547.8428,E,7.79,190.69,030605,,*06
$GPRMC,095429.698,A,5311.2905,N,00547.8177,E,7.90,180.30,030605,,*04
$GPRMC,095454.696,A,5311.2401,N,00547.8189,E,5.52,184.33,030605,,*03
$GPRMC,095506.695,A,5311.2192,N,00547.8188,E,5.94,195.72,030605,,*07
$GPRMC,095518.695,A,5311.2073,N,00547.7957,E,3.41,222.87,030605,,*08
$GPRMC,095543.693,A,5311.2037,N,00547.7993,E,0.31,97.55,030605,,*3F
$GPRMC,095608.692,A,5311.2045,N,00547.7919,E,0.00,113.40,030605,,*0E
$GPRMC,095620.691,A,5311.2036,N,00547.7935,E,0.38,234.31,030605,,*06
$GPRMC,095709.688,A,5311.1738,N,00547.8008,E,8.13,158.87,030605,,*03
$GPRMC,095746.686,A,5311.0856,N,00547.7969,E,8.18,185.35,030605,,*03
$GPRMC,095758.685,A,5311.0564,N,00547.7954,E,8.33,183.58,030605,,*09
$GPRMC,095810.684,A,5311.0270,N,00547.7950,E,9.14,182.89,030605,,*04
$GPRMC,095924.680,A,5310.8849,N,00547.7113,E,11.44,283.37,030605,,*3B
$GPRMC,095949.678,A,5310.8449,N,00547.6533,E,11.40,191.07,030605,,*3B
$GPRMC,100001.677,A,5310.8057,N,00547.6414,E,9.66,193.50,030605,,*0E
$GPRMC,100026.676,A,5310.7774,N,00547.6093,E,5.51,309.72,030605,,*01
$GPRMC,100051.674,A,5310.8037,N,00547.5604,E,5.08,320.03,030605,,*06
$GPRMC,100103.674,A,5310.8221,N,00547.5316,E,8.98,313.42,030605,,*02
$GPRMC,100115.673,A,5310.8431,N,00547.4973,E,9.10,327.05,030605,,*08
$GPRMC,100204.670,A,5310.9380,N,00547.3099,E,9.61,301.92,030605,,*02
$GPRMC,100216.669,A,5310.9522,N,00547.2625,E,10.01,288.31,030605,,*30
$GPRMC,100345.664,A,5310.9916,N,00546.8749,E,10.05,279.21,030605,,*3A
$GPRMC,100449.660,A,5311.0207,N,00546.5918,E,8.63,278.16,030605,,*0D
$GPRMC,100501.659,A,5311.0265,N,00546.5411,E,8.79,280.96,030605,,*0E
$GPRMC,100526.658,A,5311.0046,N,00546.4481,E,7.37,208.23,030605,,*0A
$GPRMC,100538.657,A,5310.9784,N,00546.4384,E,8.82,184.54,030605,,*0F
$GPRMC,100550.656,A,5310.9501,N,00546.4385,E,8.33,186.86,030605,,*09
$GPRMC,100639.653,A,5310.9343,N,00546.2965,E,8.40,281.42,030605,,*0A
$GPRMC,100651.653,A,5310.9390,N,00546.2513,E,9.22,279.96,030605,,*0C
$GPRMC,100728.650,A,5310.9582,N,00546.0806,E,10.18,283.46,030605,,*37
$GPRMC,100740.650,A,5310.9650,N,00546.0261,E,10.25,282.08,030605,,*3B
$GPRMC,100829.647,A,5310.9643,N,00545.8964,E,0.00,242.47,030605,,*0B
$GPRMC,100841.646,A,5310.9655,N,00545.8971,E,0.00,328.46,030605,,*0B
$GPRMC,100906.645,A,5310.9687,N,00545.8990,E,0.00,141.85,030605,,*08
$GPRMC,100918.644,A,5310.9680,N,00545.8947,E,0.00,7.37,030605,,*01
$GPRMC,101030.640,A,5310.9641,N,00545.8952,E,0.00,212.91,030605,,*04
$GPRMC,101156.634,A,5310.9631,N,00545.8981,E,0.41,109.38,030605,,*00
$GPRMC,101245.631,A,5310.9008,N,00545.9094,E,7.53,175.13,030605,,*02
$GPRMC,101449.624,A,5310.6518,N,00545.9292,E,10.02,177.88,030605,,*31
$GPRMC,101514.622,A,5310.5793,N,00545.9374,E,10.47,176.44,030605,,*35
$GPRMC,101526.622,A,5310.5443,N,00545.9405,E,10.62,176.10,030605,,*3D
$GPRMC,101538.621,A,5310.5079,N,00545.9425,E,10.70,176.58,030605,,*31
$GPRMC,101603.619,A,5310.4328,N,00545.9371,E,10.58,188.29,030605,,*3C
$GPRMC,101615.619,A,5310.3981,N,00545.9272,E,10.40,189.32,030605,,*35
$GPRMC,101704.616,A,5310.2620,N,00545.8851,E,9.33,190.24,030605,,*07
$GPRMC,101741.613,A,5310.1684,N,00545.8384,E,8.13,205.02,030605,,*05
$GPRMC,101806.612,A,5310.1073,N,00545.8258,E,9.23,169.75,030605,,*0D
$GPRMC,101818.611,A,5310.0763,N,00545.8349,E,9.72,170.13,030605,,*0B
$GPRMC,101843.610,A,5310.0119,N,00545.8550,E,9.99,168.49,030605,,*02
$GPRMC,101855.609,A,5309.9789,N,00545.8657,E,10.16,168.26,030605,,*31
$GPRMC,101944.606,A,5309.8501,N,00545.9088,E,9.90,169.05,030605,,*0F
$GPRMC,101956.605,A,5309.8192,N,00545.9213,E,9.46,161.79,030605,,*09
$GPRMC,102021.604,A,5309.7533,N,00545.9436,E,9.59,181.46,030605,,*0F
$GPRMC,102033.603,A,5309.7219,N,00545.9438,E,8.80,180.92,030605,,*07
$GPRMC,102058.602,A,5309.6579,N,00545.9419,E,10.17,181.94,030605,,*38
$GPRMC,102110.601,A,5309.6243,N,00545.9410,E,9.73,179.58,030605,,*0C
$GPRMC,102159.598,A,5309.4975,N,00545.9405,E,8.14,182.25,030605,,*04
$GPRMC,102211.597,A,5309.4687,N,00545.9404,E,9.22,185.60,030605,,*05
$GPRMC,102223.596,A,5309.4361,N,00545.9357,E,10.08,181.77,030605,,*3B
$GPRMC,102313.593,A,5309.3903,N,00546.0575,E,6.19,105.36,030605,,*07
$GPRMC,102424.589,A,5309.3729,N,00546.2416,E,10.23,97.43,030605,,*09
$GPRMC,102514.586,A,5309.2421,N,00546.2367,E,10.87,196.55,030605,,*36
$GPRMC,102539.585,A,5309.1741,N,00546.2318,E,9.36,101.41,030605,,*0D
$GPRMC,102551.584,A,5309.1696,N,00546.2843,E,10.24,96.65,030605,,*0E
$GPRMC,102603.583,A,5309.1639,N,00546.3435,E,10.61,100.01,030605,,*39
$GPRMC,102628.582,A,5309.1547,N,00546.4731,E,11.73,97.88,030605,,*07
$GPRMC,102653.580,A,5309.1425,N,00546.6084,E,12.16,99.37,030605,,*0D
$GPRMC,102705.579,A,5309.1373,N,00546.6731,E,11.86,96.26,030605,,*01
$GPRMC,102754.576,A,5309.1134,N,00546.9324,E,10.55,97.43,030605,,*09
$GPRMC,102806.576,A,5309.1097,N,00546.9834,E,6.42,105.13,030605,,*0D
$GPRMC,102818.575,A,5309.0861,N,00546.9722,E,10.77,208.55,030605,,*34
$GPRMC,102843.573,A,5309.0177,N,00546.9207,E,11.22,193.87,030605,,*3F
$GPRMC,102920.571,A,5308.9045,N,00546.8765,E,10.22,189.68,030605,,*3A
$GPRMC,103009.568,A,5308.8204,N,00546.8853,E,0.00,40.82,030605,,*3C
$GPRMC,103058.565,A,5308.8240,N,00546.8802,E,0.59,354.71,030605,,*07
$GPRMC,103123.564,A,5308.8255,N,00546.8816,E,0.00,76.16,030605,,*34
$GPRMC,103135.563,A,5308.8248,N,00546.8836,E,0.32,82.70,030605,,*30
$GPRMC,103224.560,A,5308.8241,N,00546.8765,E,0.00,21.58,030605,,*32
$GPRMC,103236.559,A,5308.8249,N,00546.8778,E,0.34,194.88,030605,,*0A
$GPRMC,103301.558,A,5308.7971,N,00546.8919,E,9.26,165.29,030605,,*07
$GPRMC,103313.557,A,5308.7624,N,00546.9110,E,10.94,166.20,030605,,*3F
$GPRMC,103338.556,A,5308.6972,N,00546.9409,E,11.36,160.26,030605,,*3E
$GPRMC,103350.555,A,5308.6609,N,00546.9595,E,11.30,161.46,030605,,*35
$GPRMC,103439.552,A,5308.5114,N,00547.0294,E,9.38,159.91,030605,,*0C
$GPRMC,103504.550,A,5308.4531,N,00547.0613,E,7.33,168.11,030605,,*07
$GPRMC,103516.550,A,5308.4340,N,00547.0670,E,5.94,172.50,030605,,*00
$GPRMC,103528.549,A,5308.4067,N,00547.0761,E,8.72,177.46,030605,,*05
$GPRMC,103553.547,A,5308.3404,N,00547.1075,E,10.23,164.47,030605,,*3C
$GPRMC,103618.546,A,5308.2734,N,00547.0981,E,10.36,193.02,030605,,*3E
$GPRMC,103643.544,A,5308.2053,N,00547.0718,E,9.56,200.48,030605,,*03
$GPRMC,103655.544,A,5308.1759,N,00547.0535,E,9.83,200.49,030605,,*0E
$GPRMC,103744.541,A,5308.0525,N,00546.9670,E,5.90,195.11,030605,,*04
$GPRMC,103756.540,A,5308.0331,N,00546.9530,E,8.78,196.30,030605,,*09
$GPRMC,103833.538,A,5307.9195,N,00546.9145,E,12.29,188.96,030605,,*3A
$GPRMC,103858.536,A,5307.8357,N,00546.8838,E,12.50,189.10,030605,,*37
$GPRMC,103923.535,A,5307.7505,N,00546.8550,E,12.44,191.77,030605,,*39
$GPRMC,103935.534,A,5307.7091,N,00546.8421,E,12.68,188.25,030605,,*31
$GPRMC,104024.531,A,5307.5481,N,00546.7572,E,12.08,210.44,030605,,*36
$GPRMC,104036.530,A,5307.5165,N,00546.7173,E,11.82,215.86,030605,,*34
$GPRMC,104048.530,A,5307.4845,N,00546.6798,E,11.27,218.40,030605,,*3D
$GPRMC,104113.528,A,5307.4189,N,00546.6181,E,11.46,193.76,030605,,*3E
$GPRMC,104125.527,A,5307.3835,N,00546.6079,E,10.50,181.15,030605,,*3B
$GPRMC,104214.524,A,5307.2328,N,00546.6981,E,11.98,156.97,030605,,*34
$GPRMC,104226.524,A,5307.1940,N,00546.7251,E,12.10,162.80,030605,,*37
$GPRMC,104238.523,A,5307.1548,N,00546.7404,E,11.66,161.17,030605,,*32
$GPRMC,104250.522,A,5307.1179,N,00546.7555,E,11.05,165.66,030605,,*39
$GPRMC,104404.518,A,5306.9229,N,00546.8172,E,6.56,167.30,030605,,*07
$GPRMC,104416.517,A,5306.8945,N,00546.8298,E,11.17,169.40,030605,,*36
$GPRMC,104441.515,A,5306.8158,N,00546.8649,E,10.47,158.08,030605,,*30
$GPRMC,104453.515,A,5306.7863,N,00546.8786,E,12.60,170.48,030605,,*36
$GPRMC,104505.514,A,5306.7435,N,00546.8975,E,12.97,164.50,030605,,*3C
$GPRMC,104554.511,A,5306.5832,N,00546.9668,E,12.13,167.08,030605,,*34
$GPRMC,104606.510,A,5306.5439,N,00546.9830,E,11.78,168.53,030605,,*3A
$GPRMC,104618.510,A,5306.5063,N,00547.0006,E,11.14,164.60,030605,,*3D
$GPRMC,104655.507,A,5306.3995,N,00547.0017,E,11.26,167.96,030605,,*3F
$GPRMC,104744.504,A,5306.3963,N,00546.8655,E,9.58,256.26,030605,,*07
$GPRMC,104809.503,A,5306.3843,N,00546.7548,E,9.51,259.52,030605,,*00
$GPRMC,104846.501,A,5306.3657,N,00546.6026,E,9.95,263.02,030605,,*0A
$GPRMC,104858.500,A,5306.3620,N,00546.5433,E,10.60,264.39,030605,,*3A
$GPRMC,104910.499,A,5306.3580,N,00546.4804,E,10.61,264.61,030605,,*3A
$GPRMC,104934.498,A,5306.3600,N,00546.3654,E,10.50,279.40,030605,,*37
$GPRMC,104944.497,A,5306.3614,N,00546.3166,E,10.14,268.88,030605,,*38
$GPRMC,105100.493,A,5306.2566,N,00546.0145,E,9.91,234.88,030605,,*0C
$GPRMC,105149.490,A,5306.1979,N,00545.8135,E,9.93,259.73,030605,,*02
$GPRMC,105201.489,A,5306.1927,N,00545.7525,E,11.44,266.55,030605,,*3F
$GPRMC,105213.488,A,5306.1931,N,00545.6861,E,11.34,280.27,030605,,*3C
$GPRMC,105250.486,A,5306.2192,N,00545.4911,E,11.71,284.42,030605,,*35
$GPRMC,105339.483,A,5306.2197,N,00545.2394,E,11.36,267.34,030605,,*35
$GPRMC,105351.482,A,5306.2175,N,00545.1756,E,11.12,269.90,030605,,*39
$GPRMC,105416.481,A,5306.2138,N,00545.0486,E,10.84,267.87,030605,,*3E
$GPRMC,105428.480,A,5306.2103,N,00544.9872,E,10.57,267.86,030605,,*3A
$GPRMC,105453.478,A,5306.2055,N,00544.8614,E,10.86,266.86,030605,,*31
$GPRMC,105505.478,A,5306.2036,N,00544.7992,E,11.51,266.29,030605,,*36
$GPRMC,105554.475,A,5306.1897,N,00544.5798,E,6.09,245.33,030605,,*08
$GPRMC,105619.473,A,5306.2040,N,00544.5516,E,7.86,322.61,030605,,*00
$GPRMC,105631.473,A,5306.2311,N,00544.5195,E,11.35,328.21,030605,,*33
$GPRMC,105708.470,A,5306.3209,N,00544.4309,E,7.21,328.23,030605,,*04
$GPRMC,105720.470,A,5306.3428,N,00544.4096,E,8.79,332.26,030605,,*02
$GPRMC,105809.467,A,5306.4509,N,00544.2856,E,12.59,310.66,030605,,*3A
$GPRMC,105834.465,A,5306.5034,N,00544.1745,E,11.62,311.40,030605,,*3C
$GPRMC,105846.464,A,5306.5294,N,00544.1297,E,10.87,314.03,030605,,*32
$GPRMC,105923.462,A,5306.5928,N,00544.0134,E,8.55,323.46,030605,,*02
$GPRMC,105935.461,A,5306.6051,N,00543.9830,E,5.54,252.80,030605,,*00
$GPRMC,110024.458,A,5306.5177,N,00543.8390,E,7.76,232.39,030605,,*07
$GPRMC,110101.456,A,5306.4401,N,00543.6917,E,12.23,234.81,030605,,*30
$GPRMC,110113.455,A,5306.4166,N,00543.6444,E,9.64,226.48,030605,,*00
$GPRMC,110138.454,A,5306.3958,N,00543.6006,E,0.00,285.37,030605,,*02
$GPRMC,110203.452,A,5306.4008,N,00543.5989,E,0.80,333.20,030605,,*0B
$GPRMC,110215.452,A,5306.4070,N,00543.5934,E,2.23,57.18,030605,,*34
$GPRMC,110304.449,A,5306.4132,N,00543.5822,E,0.00,65.76,030605,,*34
$GPRMC,110316.448,A,5306.4123,N,00543.5822,E,0.00,2.97,030605,,*08
$GPRMC,110341.447,A,5306.4120,N,00543.5806,E,0.85,106.56,030605,,*05
$GPRMC,110353.446,A,5306.4125,N,00543.5808,E,0.00,337.88,030605,,*02
$GPRMC,110405.445,A,5306.4157,N,00543.5806,E,0.00,330.14,030605,,*0C
$GPRMC,110454.442,A,5306.4124,N,00543.5798,E,0.00,36.42,030605,,*35
$GPRMC,110506.441,A,5306.4111,N,00543.5794,E,0.00,36.42,030605,,*3A
$GPRMC,110518.441,A,5306.4105,N,00543.5798,E,0.00,36.42,030605,,*3C
$GPRMC,110543.439,A,5306.4099,N,00543.5803,E,0.00,36.42,030605,,*34
$GPRMC,110555.438,A,5306.4101,N,00543.5800,E,0.00,36.42,030605,,*31
$GPRMC,110644.435,A,5306.4126,N,00543.5824,E,0.00,36.42,030605,,*3C
$GPRMC,110709.434,A,5306.4125,N,00543.5820,E,0.00,36.42,030605,,*32
$GPRMC,110817.430,A,5306.4145,N,00543.5799,E,0.00,36.42,030605,,*3D
$GPRMC,110913.426,A,5306.4138,N,00543.5824,E,0.00,36.42,030605,,*3C
$GPRMC,110950.424,A,5306.4119,N,00543.5815,E,0.00,36.42,030605,,*38
$GPRMC,111051.421,A,5306.4121,N,00543.5835,E,0.00,36.42,030605,,*3D
$GPRMC,111103.420,A,5306.4126,N,00543.5834,E,0.00,36.42,030605,,*3C
$GPRMC,114145.515,A,5306.3873,N,00543.5907,E,5.21,220.52,030605,,*01
$GPRMC,114157.515,A,5306.3764,N,00543.5613,E,6.42,235.84,030605,,*08
$GPRMC,114311.510,A,5306.1945,N,00543.3270,E,11.26,209.80,030605,,*3A
$GPRMC,114336.509,A,5306.1289,N,00543.2549,E,11.67,212.45,030605,,*36
$GPRMC,114348.508,A,5306.0942,N,00543.2162,E,11.82,215.11,030605,,*33
$GPRMC,114425.506,A,5305.9906,N,00543.0925,E,12.38,225.52,030605,,*34
$GPRMC,114437.505,A,5305.9631,N,00543.0398,E,12.45,229.83,030605,,*39
$GPRMC,114551.501,A,5305.7942,N,00542.7072,E,13.10,240.37,030605,,*39
$GPRMC,114628.498,A,5305.7297,N,00542.5789,E,11.41,213.03,030605,,*30
$GPRMC,114640.498,A,5305.6943,N,00542.5491,E,11.88,206.04,030605,,*31
$GPRMC,114652.497,A,5305.6553,N,00542.5163,E,13.21,207.85,030605,,*31
$GPRMC,114741.494,A,5305.5082,N,00542.3464,E,13.07,217.25,030605,,*30
$GPRMC,114753.493,A,5305.4759,N,00542.3009,E,12.65,226.35,030605,,*3D
$GPRMC,114818.492,A,5305.4230,N,00542.1666,E,14.13,241.69,030605,,*34
$GPRMC,114830.491,A,5305.4010,N,00542.0978,E,13.81,244.26,030605,,*3E
$GPRMC,115021.484,A,5305.2251,N,00541.6865,E,8.80,211.72,030605,,*00
$GPRMC,115033.484,A,5305.2023,N,00541.6626,E,10.88,210.56,030605,,*3B
$GPRMC,115058.482,A,5305.1237,N,00541.5763,E,14.55,214.92,030605,,*3F
$GPRMC,115110.481,A,5305.0825,N,00541.5315,E,14.38,214.66,030605,,*3C
$GPRMC,115122.481,A,5305.0447,N,00541.4768,E,14.95,220.21,030605,,*39
$GPRMC,115211.478,A,5304.9220,N,00541.2457,E,12.52,286.61,030605,,*3F
$GPRMC,115223.477,A,5304.9378,N,00541.1855,E,9.67,295.36,030605,,*0C
$GPRMC,115300.475,A,5304.8206,N,00541.0912,E,14.64,198.20,030605,,*32
$GPRMC,115312.474,A,5304.7748,N,00541.0658,E,13.61,198.18,030605,,*38
$GPRMC,115401.471,A,5304.6831,N,00540.8149,E,13.34,244.32,030605,,*3C
$GPRMC,115413.470,A,5304.6657,N,00540.7509,E,11.82,243.22,030605,,*36
$GPRMC,115438.469,A,5304.6290,N,00540.6220,E,12.92,247.16,030605,,*34
$GPRMC,115515.467,A,5304.5632,N,00540.4323,E,13.16,248.27,030605,,*3B
$GPRMC,115527.466,A,5304.5477,N,00540.3607,E,13.97,254.91,030605,,*35
$GPRMC,115616.463,A,5304.4738,N,00540.0935,E,13.09,230.46,030605,,*3A
$GPRMC,115641.461,A,5304.4365,N,00539.9606,E,11.77,248.66,030605,,*38
$GPRMC,115706.460,A,5304.4024,N,00539.8382,E,12.25,250.26,030605,,*3C
$GPRMC,115718.459,A,5304.3808,N,00539.7893,E,11.19,219.02,030605,,*3B
$GPRMC,115730.458,A,5304.3509,N,00539.7505,E,11.88,219.39,030605,,*3E
$GPRMC,115807.456,A,5304.2660,N,00539.6258,E,10.71,229.23,030605,,*37
$GPRMC,115831.455,A,5304.2135,N,00539.5476,E,9.84,208.36,030605,,*0A
$GPRMC,115856.453,A,5304.1521,N,00539.4903,E,8.86,215.56,030605,,*08
$GPRMC,115908.453,A,5304.1281,N,00539.4629,E,9.40,214.67,030605,,*00
$GPRMC,115933.451,A,5304.0676,N,00539.4119,E,9.68,207.06,030605,,*0C
$GPRMC,115958.449,A,5304.0097,N,00539.3487,E,10.03,216.60,030605,,*31
$GPRMC,120010.449,A,5303.9822,N,00539.3166,E,10.00,219.94,030605,,*37
$GPRMC,120022.448,A,5303.9656,N,00539.2785,E,8.24,233.23,030605,,*0B
$GPRMC,120033.447,A,5303.9528,N,00539.2336,E,9.72,241.30,030605,,*07
$GPRMC,120110.445,A,5303.8761,N,00539.1329,E,9.27,211.10,030605,,*01
$GPRMC,120123.444,A,5303.8478,N,00539.1043,E,9.70,209.63,030605,,*0B
$GPRMC,120135.444,A,5303.8207,N,00539.0772,E,9.66,215.33,030605,,*09
$GPRMC,120147.443,A,5303.7967,N,00539.0442,E,8.23,234.59,030605,,*06
$GPRMC,120200.442,A,5303.7826,N,00539.0029,E,8.72,235.96,030605,,*0C
$GPRMC,120212.441,A,5303.7695,N,00538.9594,E,9.03,243.73,030605,,*0C
$GPRMC,120223.441,A,5303.7574,N,00538.9159,E,9.65,243.36,030605,,*06
$GPRMC,120326.437,A,5303.6844,N,00538.6521,E,9.08,201.92,030605,,*0B
$GPRMC,120403.435,A,5303.5973,N,00538.7438,E,11.14,144.49,030605,,*37
$GPRMC,120415.434,A,5303.5751,N,00538.7870,E,10.74,116.59,030605,,*3E
$GPRMC,120440.432,A,5303.5582,N,00538.9074,E,8.55,130.56,030605,,*07
$GPRMC,120452.432,A,5303.5384,N,00538.9451,E,9.10,133.19,030605,,*0F
$GPRMC,120606.427,A,5303.4243,N,00539.1748,E,8.67,126.02,030605,,*0E
$GPRMC,120733.422,A,5303.3332,N,00539.3737,E,9.66,143.15,030605,,*03
$GPRMC,120745.421,A,5303.3082,N,00539.4125,E,10.04,139.99,030605,,*3E
$GPRMC,120757.420,A,5303.2810,N,00539.4557,E,10.13,132.93,030605,,*38
$GPRMC,120821.419,A,5303.2538,N,00539.5116,E,5.46,130.14,030605,,*02
$GPRMC,120833.418,A,5303.2428,N,00539.5404,E,5.51,111.28,030605,,*0C
$GPRMC,120947.414,A,5303.1477,N,00539.8207,E,12.57,125.08,030605,,*36
$GPRMC,121046.410,A,5303.0871,N,00540.0767,E,8.11,32.36,030605,,*36
$GPRMC,121123.408,A,5303.0989,N,00540.1050,E,1.08,92.47,030605,,*34
$GPRMC,121135.407,A,5303.0934,N,00540.1394,E,10.63,100.39,030605,,*3F
$GPRMC,121212.405,A,5303.0795,N,00540.2848,E,11.68,105.06,030605,,*34
$GPRMC,121301.402,A,5303.0292,N,00540.4980,E,8.27,182.54,030605,,*0A
$GPRMC,121313.401,A,5303.0040,N,00540.4946,E,7.15,190.35,030605,,*07
$GPRMC,121338.400,A,5302.9375,N,00540.4844,E,11.66,182.37,030605,,*33
$GPRMC,121350.399,A,5302.8979,N,00540.4757,E,11.73,199.35,030605,,*3C
$GPRMC,121402.398,A,5302.8641,N,00540.4483,E,10.35,197.73,030605,,*3C
$GPRMC,121426.397,A,5302.8322,N,00540.4193,E,3.86,250.89,030605,,*06
$GPRMC,121438.396,A,5302.8193,N,00540.4168,E,5.73,157.03,030605,,*0E
$GPRMC,121451.395,A,5302.8042,N,00540.4237,E,2.63,91.80,030605,,*30
$GPRMC,121540.392,A,5302.7995,N,00540.5605,E,8.13,106.49,030605,,*09
$GPRMC,121552.392,A,5302.7974,N,00540.6084,E,8.04,100.58,030605,,*09
$GPRMC,121706.387,A,5302.6226,N,00540.5531,E,11.57,216.95,030605,,*30
$GPRMC,121718.387,A,5302.5881,N,00540.5167,E,13.09,212.66,030605,,*3D
$GPRMC,121731.386,A,5302.5485,N,00540.4738,E,13.17,215.91,030605,,*32
$GPRMC,121743.385,A,5302.5139,N,00540.4335,E,12.16,211.72,030605,,*36
$GPRMC,121807.384,A,5302.4460,N,00540.3596,E,10.95,215.60,030605,,*36
$GPRMC,121819.383,A,5302.4160,N,00540.3227,E,11.39,212.52,030605,,*37
$GPRMC,121832.382,A,5302.3817,N,00540.2944,E,12.29,202.67,030605,,*3B
$GPRMC,121908.380,A,5302.2919,N,00540.2491,E,7.46,190.56,030605,,*0D
$GPRMC,122022.375,A,5302.1164,N,00540.0883,E,8.86,230.05,030605,,*05
$GPRMC,122242.367,A,5302.0471,N,00539.7673,E,9.98,259.57,030605,,*0C
$GPRMC,122407.362,A,5302.0281,N,00539.6704,E,0.31,148.72,030605,,*09
$GPRMC,122420.361,A,5302.0245,N,00539.6693,E,0.00,147.32,030605,,*01
$GPRMC,122433.360,A,5302.0269,N,00539.6644,E,0.00,353.08,030605,,*08
$GPRMC,122445.360,A,5302.0262,N,00539.6625,E,0.00,112.82,030605,,*00
$GPRMC,122457.359,A,5302.0255,N,00539.6601,E,4.39,256.23,030605,,*0D
$GPRMC,122510.358,A,5302.0224,N,00539.6113,E,10.83,266.77,030605,,*3A
$GPRMC,122535.357,A,5302.0361,N,00539.4784,E,11.20,250.63,030605,,*30
$GPRMC,122547.356,A,5302.0381,N,00539.4254,E,8.87,321.26,030605,,*01
$GPRMC,122558.355,A,5302.0570,N,00539.3941,E,7.22,313.51,030605,,*0D
$GPRMC,122636.353,A,5302.0690,N,00539.3650,E,4.35,299.98,030605,,*01
$GPRMC,122648.352,A,5302.0582,N,00539.3317,E,9.30,219.03,030605,,*0D
$GPRMC,122700.351,A,5302.0308,N,00539.2928,E,10.97,222.45,030605,,*3F
$GPRMC,122713.351,A,5302.0026,N,00539.2421,E,11.20,229.01,030605,,*30
$GPRMC,122725.350,A,5301.9775,N,00539.1925,E,11.08,211.26,030605,,*31
$GPRMC,122737.349,A,5301.9497,N,00539.1514,E,11.16,212.72,030605,,*36
$GPRMC,122750.348,A,5301.9087,N,00539.1244,E,12.86,208.97,030605,,*3B
$GPRMC,122802.348,A,5301.8823,N,00539.0719,E,11.33,232.29,030605,,*39
$GPRMC,122814.347,A,5301.8559,N,00539.0158,E,12.79,230.20,030605,,*34
$GPRMC,122827.346,A,5301.8292,N,00538.9625,E,9.62,228.61,030605,,*0C
$GPRMC,122838.345,A,5301.8165,N,00538.9390,E,6.94,150.96,030605,,*03
$GPRMC,122916.343,A,5301.7531,N,00538.8246,E,11.96,234.75,030605,,*31
$GPRMC,122928.342,A,5301.7294,N,00538.7694,E,12.46,236.60,030605,,*39
$GPRMC,122940.342,A,5301.7068,N,00538.7132,E,12.27,237.39,030605,,*37
$GPRMC,122952.341,A,5301.6867,N,00538.6579,E,9.67,238.34,030605,,*07
$GPRMC,123005.340,A,5301.6713,N,00538.6129,E,11.20,238.68,030605,,*32
$GPRMC,123017.339,A,5301.6526,N,00538.5563,E,11.54,236.88,030605,,*31
$GPRMC,123028.339,A,5301.6293,N,00538.5149,E,10.40,210.03,030605,,*3B
$GPRMC,123041.338,A,5301.6006,N,00538.4651,E,13.40,229.01,030605,,*3F
$GPRMC,123053.337,A,5301.5724,N,00538.4065,E,11.85,232.50,030605,,*33
$GPRMC,123106.336,A,5301.5477,N,00538.3565,E,10.31,248.08,030605,,*3A
$GPRMC,123118.336,A,5301.5292,N,00538.3044,E,11.94,226.91,030605,,*38
$GPRMC,123130.335,A,5301.5012,N,00538.2522,E,12.93,227.69,030605,,*3D
