$GPRMC,085546.910,A,5311.7428,N,00547.5022,E,0.00,120.45,030605,,*0F
$GPRMC,085558.910,A,5311.7422,N,00547.5032,E,1.72,153.87,030605,,*05
$GPRMC,085648.907,A,5311.7209,N,00547.5209,E,1.72,153.87,030605,,*04
$GPRMC,085711.905,A,5311.7110,N,00547.5290,E,1.72,153.87,030605,,*00
$GPRMC,085749.903,A,5311.7454,N,00547.5002,E,0.00,5.86,030605,,*00
$GPRMC,090343.882,A,5311.7419,N,00547.4982,E,0.00,45.46,030605,,*33
$GPRMC,090420.879,A,5311.7412,N,00547.4924,E,0.28,81.36,030605,,*37
$GPRMC,090509.876,A,5311.7520,N,00547.4942,E,0.00,47.74,030605,,*34
$GPRMC,095328.701,A,5311.4190,N,00547.8509,E,7.26,186.61,030605,,*03
$GPRMC,095340.701,A,5311.3939,N,00547.8428,E,7.79,190.69,030605,,*06
$GPRMC,095429.698,A,5311.2905,N,00547.8177,E,7.90,180.30,030605,,*04
$GPRMC,095454.696,A,5311.2401,N,00547.8189,E,5.52,184.33,030605,,*03
$GPRMC,095506.695,A,5311.2192,N,00547.8188,E,5.94,195.72,030605,,*07
$GPRMC,095518.695,A,5311.2073,N,00547.7957,E,3.41,222.87,030605,,*08
$GPRMC,095543.693,A,5311.2037,N,00547.7993,E,0.31,97.55,030605,,*3F
$GPRMC,095608.692,A,5311.2045,N,00547.7919,E,0.00,113.40,030605,,*0E
$GPRMC,095620.691,A,5311.2036,N,00547.7935,E,0.38,234.31,030605,,*06
$GPRMC,100345.664,A,5310.9916,N,00546.8749,E,10.05,279.21,030605,,*3A
$GPRMC,100449.660,A,5311.0207,N,00546.5918,E,8.63,278.16,030605,,*0D
$GPRMC,100501.659,A,5311.0265,N,00546.5411,E,8.79,280.96,030605,,*0E
$GPRMC,100526.658,A,5311.0046,N,00546.4481,E,7.37,208.23,030605,,*0A
$GPRMC,100538.657,A,5310.9784,N,00546.4384,E,8.82,184.54,030605,,*0F
$GPRMC,100550.656,A,5310.9501,N,00546.4385,E,8.33,186.86,030605,,*09
$GPRMC,100639.653,A,5310.9343,N,00546.2965,E,8.40,281.42,030605,,*0A
$GPRMC,100651.653,A,5310.9390,N,00546.2513,E,9.22,279.96,030605,,*0C
$GPRMC,100728.650,A,5310.9582,N,00546.0806,E,10.18,283.46,030605,,*37
$GPRMC,100740.650,A,5310.9650,N,00546.0261,E,10.25,282.08,030605,,*3B
$GPRMC,100829.647,A,5310.9643,N,00545.8964,E,0.00,242.47,030605,,*0B
$GPRMC,100841.646,A,5310.9655,N,00545.8971,E,0.00,328.46,030605,,*0B
$GPRMC,101603.619,A,5310.4328,N,00545.9371,E,10.58,188.29,030605,,*3C
$GPRMC,101615.619,A,5310.3981,N,00545.9272,E,10.40,189.32,030605,,*35
$GPRMC,101704.616,A,5310.2620,N,00545.8851,E,9.33,190.24,030605,,*07
$GPRMC,101741.613,A,5310.1684,N,00545.8384,E,8.13,205.02,030605,,*05
$GPRMC,101806.612,A,5310.1073,N,00545.8258,E,9.23,169.75,030605,,*0D
$GPRMC,101818.611,A,5310.0763,N,00545.8349,E,9.72,170.13,030605,,*0B
$GPRMC,101843.610,A,5310.0119,N,00545.8550,E,9.99,168.49,030605,,*02
$GPRMC,101855.609,A,5309.9789,N,00545.8657,E,10.16,168.26,030605,,*31
$GPRMC,101944.606,A,5309.8501,N,00545.9088,E,9.90,169.05,030605,,*0F
$GPRMC,101956.605,A,5309.8192,N,00545.9213,E,9.46,161.79,030605,,*09
$GPRMC,102021.604,A,5309.7533,N,00545.9436,E,9.59,181.46,030605,,*0F
$GPRMC,102033.603,A,5309.7219,N,00545.9438,E,8.80,180.92,030605,,*07
$GPRMC,102058.602,A,5309.6579,N,00545.9419,E,10.17,181.94,030605,,*38
$GPRMC,102110.601,A,5309.6243,N,00545.9410,E,9.73,179.58,030605,,*0C
$GPRMC,102159.598,A,5309.4975,N,00545.9405,E,8.14,182.25,030605,,*04
$GPRMC,102211.597,A,5309.4687,N,00545.9404,E,9.22,185.60,030605,,*05
$GPRMC,102223.596,A,5309.4361,N,00545.9357,E,10.08,181.77,030605,,*3B
$GPRMC,102313.593,A,5309.3903,N,00546.0575,E,6.19,105.36,030605,,*07
$GPRMC,102424.589,A,5309.3729,N,00546.2416,E,10.23,97.43,030605,,*09
$GPRMC,102514.586,A,5309.2421,N,00546.2367,E,10.87,196.55,030605,,*36
$GPRMC,102539.585,A,5309.1741,N,00546.2318,E,9.36,101.41,030605,,*0D
$GPRMC,102551.584,A,5309.1696,N,00546.2843,E,10.24,96.65,030605,,*0E
$GPRMC,102603.583,A,5309.1639,N,00546.3435,E,10.61,100.01,030605,,*39
$GPRMC,102628.582,A,5309.1547,N,00546.4731,E,11.73,97.88,030605,,*07
$GPRMC,102653.580,A,5309.1425,N,00546.6084,E,12.16,99.37,030605,,*0D
$GPRMC,102705.579,A,5309.1373,N,00546.6731,E,11.86,96.26,030605,,*01
$GPRMC,102754.576,A,5309.1134,N,00546.9324,E,10.55,97.43,030605,,*09
$GPRMC,102806.576,A,5309.1097,N,00546.9834,E,6.42,105.13,030605,,*0D
$GPRMC,102818.575,A,5309.0861,N,00546.9722,E,10.77,208.55,030605,,*34
$GPRMC,102843.573,A,5309.0177,N,00546.9207,E,11.22,193.87,030605,,*3F
$GPRMC,102920.571,A,5308.9045,N,00546.8765,E,10.22,189.68,030605,,*3A
$GPRMC,103009.568,A,5308.8204,N,00546.8853,E,0.00,40.82,030605,,*3C
$GPRMC,103058.565,A,5308.8240,N,00546.8802,E,0.59,354.71,030605,,*07
$GPRMC,103123.564,A,5308.8255,N,00546.8816,E,0.00,76.16,030605,,*34
$GPRMC,103135.563,A,5308.8248,N,00546.8836,E,0.32,82.70,030605,,*30
$GPRMC,103224.560,A,5308.8241,N,00546.8765,E,0.00,21.58,030605,,*32
$GPRMC,103236.559,A,5308.8249,N,00546.8778,E,0.34,194.88,030605,,*0A
$GPRMC,103301.558,A,5308.7971,N,00546.8919,E,9.26,165.29,030605,,*07
$GPRMC,103313.557,A,5308.7624,N,00546.9110,E,10.94,166.20,030605,,*3F
$GPRMC,103338.556,A,5308.6972,N,00546.9409,E,11.36,160.26,030605,,*3E
$GPRMC,103350.555,A,5308.6609,N,00546.9595,E,11.30,161.46,030605,,*35
$GPRMC,103439.552,A,5308.5114,N,00547.0294,E,9.38,159.91,030605,,*0C
$GPRMC,103504.550,A,5308.4531,N,00547.0613,E,7.33,168.11,030605,,*07
$GPRMC,103516.550,A,5308.4340,N,00547.0670,E,5.94,172.50,030605,,*00
$GPRMC,103528.549,A,5308.4067,N,00547.0761,E,8.72,177.46,030605,,*05
$GPRMC,103553.547,A,5308.3404,N,00547.1075,E,10.23,164.47,030605,,*3C
$GPRMC,103618.546,A,5308.2734,N,00547.0981,E,10.36,193.02,030605,,*3E
$GPRMC,103643.544,A,5308.2053,N,00547.0718,E,9.56,200.48,030605,,*03
$GPRMC,103655.544,A,5308.1759,N,00547.0535,E,9.83,200.49,030605,,*0E
$GPRMC,103744.541,A,5308.0525,N,00546.9670,E,5.90,195.11,030605,,*04
$GPRMC,103756.540,A,5308.0331,N,00546.9530,E,8.78,196.30,030605,,*09
$GPRMC,103833.538,A,5307.9195,N,00546.9145,E,12.29,188.96,030605,,*3A
$GPRMC,103858.536,A,5307.8357,N,00546.8838,E,12.50,189.10,030605,,*37
$GPRMC,103923.535,A,5307.7505,N,00546.8550,E,12.44,191.77,030605,,*39
$GPRMC,103935.534,A,5307.7091,N,00546.8421,E,12.68,188.25,030605,,*31
$GPRMC,104024.531,A,5307.5481,N,00546.7572,E,12.08,210.44,030605,,*36
$GPRMC,104036.530,A,5307.5165,N,00546.7173,E,11.82,215.86,030605,,*34
$GPRMC,104048.530,A,5307.4845,N,00546.6798,E,11.27,218.40,030605,,*3D
$GPRMC,104655.507,A,5306.3995,N,00547.0017,E,11.26,167.96,030605,,*3F
$GPRMC,104744.504,A,5306.3963,N,00546.8655,E,9.58,256.26,030605,,*07
$GPRMC,104809.503,A,5306.3843,N,00546.7548,E,9.51,259.52,030605,,*00
$GPRMC,104846.501,A,5306.3657,N,00546.6026,E,9.95,263.02,030605,,*0A
$GPRMC,104858.500,A,5306.3620,N,00546.5433,E,10.60,264.39,030605,,*3A
$GPRMC,104910.499,A,5306.3580,N,00546.4804,E,10.61,264.61,030605,,*3A
$GPRMC,104934.498,A,5306.3600,N,00546.3654,E,10.50,279.40,030605,,*37
$GPRMC,104944.497,A,5306.3614,N,00546.3166,E,10.14,268.88,030605,,*38
$GPRMC,105100.493,A,5306.2566,N,00546.0145,E,9.91,234.88,030605,,*0C
$GPRMC,105149.490,A,5306.1979,N,00545.8135,E,9.93,259.73,030605,,*02
$GPRMC,105201.489,A,5306.1927,N,00545.7525,E,11.44,266.55,030605,,*3F
$GPRMC,105213.488,A,5306.1931,N,00545.6861,E,11.34,280.27,030605,,*3C
$GPRMC,105250.486,A,5306.2192,N,00545.4911,E,11.71,284.42,030605,,*35
$GPRMC,105339.483,A,5306.2197,N,00545.2394,E,11.36,267.34,030605,,*35
$GPRMC,105351.482,A,5306.2175,N,00545.1756,E,11.12,269.90,030605,,*39
$GPRMC,105416.481,A,5306.2138,N,00545.0486,E,10.84,267.87,030605,,*3E
$GPRMC,105428.480,A,5306.2103,N,00544.9872,E,10.57,267.86,030605,,*3A
$GPRMC,105453.478,A,5306.2055,N,00544.8614,E,10.86,266.86,030605,,*31
$GPRMC,105505.478,A,5306.2036,N,00544.7992,E,11.51,266.29,030605,,*36
$GPRMC,105554.475,A,5306.1897,N,00544.5798,E,6.09,245.33,030605,,*08
$GPRMC,105619.473,A,5306.2040,N,00544.5516,E,7.86,322.61,030605,,*00
$GPRMC,105631.473,A,5306.2311,N,00544.5195,E,11.35,328.21,030605,,*33
$GPRMC,105708.470,A,5306.3209,N,00544.4309,E,7.21,328.23,030605,,*04
$GPRMC,105720.470,A,5306.3428,N,00544.4096,E,8.79,332.26,030605,,*02
$GPRMC,105809.467,A,5306.4509,N,00544.2856,E,12.59,310.66,030605,,*3A
$GPRMC,105834.465,A,5306.5034,N,00544.1745,E,11.62,311.40,030605,,*3C
$GPRMC,110113.455,A,5306.4166,N,00543.6444,E,9.64,226.48,030605,,*00
$GPRMC,110138.454,A,5306.3958,N,00543.6006,E,0.00,285.37,030605,,*02
$GPRMC,110203.452,A,5306.4008,N,00543.5989,E,0.80,333.20,030605,,*0B
$GPRMC,110215.452,A,5306.4070,N,00543.5934,E,2.23,57.18,030605,,*34
$GPRMC,110304.449,A,5306.4132,N,00543.5822,E,0.00,65.76,030605,,*34
$GPRMC,110316.448,A,5306.4123,N,00543.5822,E,0.00,2.97,030605,,*08
$GPRMC,110341.447,A,5306.4120,N,00543.5806,E,0.85,106.56,030605,,*05
$GPRMC,110353.446,A,5306.4125,N,00543.5808,E,0.00,337.88,030605,,*02
$GPRMC,110405.445,A,5306.4157,N,00543.5806,E,0.00,330.14,030605,,*0C
$GPRMC,110454.442,A,5306.4124,N,00543.5798,E,0.00,36.42,030605,,*35
$GPRMC,110506.441,A,5306.4111,N,00543.5794,E,0.00,36.42,030605,,*3A
$GPRMC,110518.441,A,5306.4105,N,00543.5798,E,0.00,36.42,030605,,*3C
$GPRMC,110543.439,A,5306.4099,N,00543.5803,E,0.00,36.42,030605,,*34
$GPRMC,110555.438,A,5306.4101,N,00543.5800,E,0.00,36.42,030605,,*31
$GPRMC,110644.435,A,5306.4126,N,00543.5824,E,0.00,36.42,030605,,*3C
$GPRMC,111051.421,A,5306.4121,N,00543.5835,E,0.00,36.42,030605,,*3D
$GPRMC,111103.420,A,5306.4126,N,00543.5834,E,0.00,36.42,030605,,*3C
$GPRMC,114145.515,A,5306.3873,N,00543.5907,E,5.21,220.52,030605,,*01
$GPRMC,114157.515,A,5306.3764,N,00543.5613,E,6.42,235.84,030605,,*08
$GPRMC,114311.510,A,5306.1945,N,00543.3270,E,11.26,209.80,030605,,*3A
$GPRMC,114336.509,A,5306.1289,N,00543.2549,E,11.67,212.45,030605,,*36
$GPRMC,114348.508,A,5306.0942,N,00543.2162,E,11.82,215.11,030605,,*33
$GPRMC,114425.506,A,5305.9906,N,00543.0925,E,12.38,225.52,030605,,*34
$GPRMC,114437.505,A,5305.9631,N,00543.0398,E,12.45,229.83,030605,,*39
$GPRMC,114551.501,A,5305.7942,N,00542.7072,E,13.10,240.37,030605,,*39
$GPRMC,114628.498,A,5305.7297,N,00542.5789,E,11.41,213.03,030605,,*30
$GPRMC,114640.498,A,5305.6943,N,00542.5491,E,11.88,206.04,030605,,*31
$GPRMC,114652.497,A,5305.6553,N,00542.5163,E,13.21,207.85,030605,,*31
$GPRMC,114741.494,A,5305.5082,N,00542.3464,E,13.07,217.25,030605,,*30
$GPRMC,114753.493,A,5305.4759,N,00542.3009,E,12.65,226.35,030605,,*3D
$GPRMC,114818.492,A,5305.4230,N,00542.1666,E,14.13,241.69,030605,,*34
$GPRMC,114830.491,A,5305.4010,N,00542.0978,E,13.81,244.26,030605,,*3E
$GPRMC,115021.484,A,5305.2251,N,00541.6865,E,8.80,211.72,030605,,*00
$GPRMC,115033.484,A,5305.2023,N,00541.6626,E,10.88,210.56,030605,,*3B
$GPRMC,115058.482,A,5305.1237,N,00541.5763,E,14.55,214.92,030605,,*3F
$GPRMC,115110.481,A,5305.0825,N,00541.5315,E,14.38,214.66,030605,,*3C
$GPRMC,115122.481,A,5305.0447,N,00541.4768,E,14.95,220.21,030605,,*39
$GPRMC,115211.478,A,5304.9220,N,00541.2457,E,12.52,286.61,030605,,*3F
$GPRMC,115223.477,A,5304.9378,N,00541.1855,E,9.67,295.36,030605,,*0C
$GPRMC,115300.475,A,5304.8206,N,00541.0912,E,14.64,198.20,030605,,*32
$GPRMC,115312.474,A,5304.7748,N,00541.0658,E,13.61,198.18,030605,,*38
$GPRMC,115401.471,A,5304.6831,N,00540.8149,E,13.34,244.32,030605,,*3C
$GPRMC,115413.470,A,5304.6657,N,00540.7509,E,11.82,243.22,030605,,*36
$GPRMC,115438.469,A,5304.6290,N,00540.6220,E,12.92,247.16,030605,,*34
$GPRMC,115515.467,A,5304.5632,N,00540.4323,E,13.16,248.27,030605,,*3B
$GPRMC,115527.466,A,5304.5477,N,00540.3607,E,13.97,254.91,030605,,*35
$GPRMC,115616.463,A,5304.4738,N,00540.0935,E,13.09,230.46,030605,,*3A
$GPRMC,115641.461,A,5304.4365,N,00539.9606,E,11.77,248.66,030605,,*38
$GPRMC,115706.460,A,5304.4024,N,00539.8382,E,12.25,250.26,030605,,*3C
$GPRMC,115718.459,A,5304.3808,N,00539.7893,E,11.19,219.02,030605,,*3B
$GPRMC,115730.458,A,5304.3509,N,00539.7505,E,11.88,219.39,030605,,*3E
$GPRMC,115807.456,A,5304.2660,N,00539.6258,E,10.71,229.23,030605,,*37
$GPRMC,115831.455,A,5304.2135,N,00539.5476,E,9.84,208.36,030605,,*0A
$GPRMC,115856.453,A,5304.1521,N,00539.4903,E,8.86,215.56,030605,,*08
$GPRMC,115908.453,A,5304.1281,N,00539.4629,E,9.40,214.67,030605,,*00
$GPRMC,115933.451,A,5304.0676,N,00539.4119,E,9.68,207.06,030605,,*0C
$GPRMC,115958.449,A,5304.0097,N,00539.3487,E,10.03,216.60,030605,,*31
$GPRMC,120010.449,A,5303.9822,N,00539.3166,E,10.00,219.94,030605,,*37
$GPRMC,120022.448,A,5303.9656,N,00539.2785,E,8.24,233.23,030605,,*0B
$GPRMC,120033.447,A,5303.9528,N,00539.2336,E,9.72,241.30,030605,,*07
$GPRMC,120110.445,A,5303.8761,N,00539.1329,E,9.27,211.10,030605,,*01
$GPRMC,120123.444,A,5303.8478,N,00539.1043,E,9.70,209.63,030605,,*0B
$GPRMC,120135.444,A,5303.8207,N,00539.0772,E,9.66,215.33,030605,,*09
$GPRMC,120147.443,A,5303.7967,N,00539.0442,E,8.23,234.59,030605,,*06
$GPRMC,120200.442,A,5303.7826,N,00539.0029,E,8.72,235.96,030605,,*0C
$GPRMC,120212.441,A,5303.7695,N,00538.9594,E,9.03,243.73,030605,,*0C
$GPRMC,120223.441,A,5303.7574,N,00538.9159,E,9.65,243.36,030605,,*06
$GPRMC,120326.437,A,5303.6844,N,00538.6521,E,9.08,201.92,030605,,*0B
$GPRMC,120403.435,A,5303.5973,N,00538.7438,E,11.14,144.49,030605,,*37
$GPRMC,120415.434,A,5303.5751,N,00538.7870,E,10.74,116.59,030605,,*3E
$GPRMC,120440.432,A,5303.5582,N,00538.9074,E,8.55,130.56,030605,,*07
$GPRMC,120452.432,A,5303.5384,N,00538.9451,E,9.10,133.19,030605,,*0F
$GPRMC,120606.427,A,5303.4243,N,00539.1748,E,8.67,126.02,030605,,*0E
$GPRMC,120733.422,A,5303.3332,N,00539.3737,E,9.66,143.15,030605,,*03
$GPRMC,120745.421,A,5303.3082,N,00539.4125,E,10.04,139.99,030605,,*3E
$GPRMC,120757.420,A,5303.2810,N,00539.4557,E,10.13,132.93,030605,,*38
$GPRMC,120821.419,A,5303.2538,N,00539.5116,E,5.46,130.14,030605,,*02
$GPRMC,120833.418,A,5303.2428,N,00539.5404,E,5.51,111.28,030605,,*0C
$GPRMC,120947.414,A,5303.1477,N,00539.8207,E,12.57,125.08,030605,,*36
$GPRMC,121046.410,A,5303.0871,N,00540.0767,E,8.11,32.36,030605,,*36
$GPRMC,121123.408,A,5303.0989,N,00540.1050,E,1.08,92.47,030605,,*34
$GPRMC,121135.407,A,5303.0934,N,00540.1394,E,10.63,100.39,030605,,*3F
$GPRMC,121212.405,A,5303.0795,N,00540.2848,E,11.68,105.06,030605,,*34
$GPRMC,121301.402,A,5303.0292,N,00540.4980,E,8.27,182.54,030605,,*0A
$GPRMC,121313.401,A,5303.0040,N,00540.4946,E,7.15,190.35,030605,,*07
$GPRMC,121338.400,A,5302.9375,N,00540.4844,E,11.66,182.37,030605,,*33
$GPRMC,121350.399,A,5302.8979,N,00540.4757,E,11.73,199.35,030605,,*3C
$GPRMC,121402.398,A,5302.8641,N,00540.4483,E,10.35,197.73,030605,,*3C
$GPRMC,121426.397,A,5302.8322,N,00540.4193,E,3.86,250.89,030605,,*06
$GPRMC,121438.396,A,5302.8193,N,00540.4168,E,5.73,157.03,030605,,*0E
$GPRMC,121451.395,A,5302.8042,N,00540.4237,E,2.63,91.80,030605,,*30
$GPRMC,121540.392,A,5302.7995,N,00540.5605,E,8.13,106.49,030605,,*09
$GPRMC,121552.392,A,5302.7974,N,00540.6084,E,8.04,100.58,030605,,*09
$GPRMC,121706.387,A,5302.6226,N,00540.5531,E,11.57,216.95,030605,,*30
$GPRMC,121718.387,A,5302.5881,N,00540.5167,E,13.09,212.66,030605,,*3D
$GPRMC,121731.386,A,5302.5485,N,00540.4738,E,13.17,215.91,030605,,*32
$GPRMC,121743.385,A,5302.5139,N,00540.4335,E,12.16,211.72,030605,,*36
$GPRMC,121807.384,A,5302.4460,N,00540.3596,E,10.95,215.60,030605,,*36
$GPRMC,121819.383,A,5302.4160,N,00540.3227,E,11.39,212.52,030605,,*37
$GPRMC,121832.382,A,5302.3817,N,00540.2944,E,12.29,202.67,030605,,*3B
$GPRMC,121908.380,A,5302.2919,N,00540.2491,E,7.46,190.56,030605,,*0D
$GPRMC,122022.375,A,5302.1164,N,00540.0883,E,8.86,230.05,030605,,*05
$GPRMC,122242.367,A,5302.0471,N,00539.7673,E,9.98,259.57,030605,,*0C
$GPRMC,122407.362,A,5302.0281,N,00539.6704,E,0.31,148.72,030605,,*09
$GPRMC,122420.361,A,5302.0245,N,00539.6693,E,0.00,147.32,030605,,*01
$GPRMC,122433.360,A,5302.0269,N,00539.6644,E,0.00,353.08,030605,,*08
$GPRMC,122445.360,A,5302.0262,N,00539.6625,E,0.00,112.82,030605,,*00
$GPRMC,122457.359,A,5302.0255,N,00539.6601,E,4.39,256.23,030605,,*0D
$GPRMC,122510.358,A,5302.0224,N,00539.6113,E,10.83,266.77,030605,,*3A
$GPRMC,122535.357,A,5302.0361,N,00539.4784,E,11.20,250.63,030605,,*30
$GPRMC,122547.356,A,5302.0381,N,00539.4254,E,8.87,321.26,030605,,*01
$GPRMC,122558.355,A,5302.0570,N,00539.3941,E,7.22,313.51,030605,,*0D
$GPRMC,122636.353,A,5302.0690,N,00539.3650,E,4.35,299.98,030605,,*01
$GPRMC,122648.352,A,5302.0582,N,00539.3317,E,9.30,219.03,030605,,*0D
$GPRMC,122700.351,A,5302.0308,N,00539.2928,E,10.97,222.45,030605,,*3F
$GPRMC,122713.351,A,5302.0026,N,00539.2421,E,11.20,229.01,030605,,*30
$GPRMC,122725.350,A,5301.9775,N,00539.1925,E,11.08,211.26,030605,,*31
$GPRMC,122737.349,A,5301.9497,N,00539.1514,E,11.16,212.72,030605,,*36
$GPRMC,122750.348,A,5301.9087,N,00539.1244,E,12.86,208.97,030605,,*3B
$GPRMC,122802.348,A,5301.8823,N,00539.0719,E,11.33,232.29,030605,,*39
$GPRMC,122814.347,A,5301.8559,N,00539.0158,E,12.79,230.20,030605,,*34
$GPRMC,122827.346,A,5301.8292,N,00538.9625,E,9.62,228.61,030605,,*0C
$GPRMC,122838.345,A,5301.8165,N,00538.9390,E,6.94,150.96,030605,,*03
$GPRMC,122916.343,A,5301.7531,N,00538.8246,E,11.96,234.75,030605,,*31
$GPRMC,122928.342,A,5301.7294,N,00538.7694,E,12.46,236.60,030605,,*39
$GPRMC,122940.342,A,5301.7068,N,00538.7132,E,12.27,237.39,030605,,*37
$GPRMC,122952.341,A,5301.6867,N,00538.6579,E,9.67,238.34,030605,,*07
$GPRMC,123005.340,A,5301.6713,N,00538.6129,E,11.20,238.68,030605,,*32
$GPRMC,123017.339,A,5301.6526,N,00538.5563,E,11.54,236.88,030605,,*31
$GPRMC,123028.339,A,5301.6293,N,00538.5149,E,10.40,210.03,030605,,*3B
$GPRMC,123041.338,A,5301.6006,N,00538.4651,E,13.40,229.01,030605,,*3F
$GPRMC,123053.337,A,5301.5724,N,00538.4065,E,11.85,232.50,030605,,*33
$GPRMC,123106.336,A,5301.5477,N,00538.3565,E,10.31,248.08,030605,,*3A
$GPRMC,123118.336,A,5301.5292,N,00538.3044,E,11.94,226.91,030605,,*38
$GPRMC,123130.335,A,5301.5012,N,00538.2522,E,12.93,227.69,030605,,*3D
$GPRMC,123142.334,A,5301.4740,N,00538.1962,E,12.60,231.49,030605,,*3A
$GPRMC,123155.333,A,5301.4440,N,00538.1365,E,13.20,231.25,030605,,*3A
$GPRMC,123207.333,A,5301.4156,N,00538.0798,E,13.06,234.95,030605,,*31
$GPRMC,123218.332,A,5301.3896,N,00538.0301,E,12.95,223.86,030605,,*37
$GPRMC,123231.331,A,5301.3584,N,00537.9723,E,12.78,225.58,030605,,*35
$GPRMC,123243.331,A,5301.3328,N,00537.9195,E,12.57,232.11,030605,,*3D
$GPRMC,123256.330,A,5301.3045,N,00537.8594,E,12.92,232.45,030605,,*3C
$GPRMC,123308.329,A,5301.2776,N,00537.8044,E,12.44,228.40,030605,,*35
$GPRMC,123320.328,A,5301.2511,N,00537.7509,E,11.90,233.06,030605,,*3C
$GPRMC,123332.328,A,5301.2242,N,00537.6964,E,12.42,230.18,030605,,*38
$GPRMC,123344.327,A,5301.1965,N,00537.6438,E,12.19,229.82,030605,,*3A
$GPRMC,123357.326,A,5301.1666,N,00537.5919,E,11.74,226.89,030605,,*34
$GPRMC,123408.325,A,5301.1446,N,00537.5427,E,11.85,230.68,030605,,*3C
$GPRMC,123421.325,A,5301.1156,N,00537.4854,E,12.35,230.85,030605,,*31
$GPRMC,123433.324,A,5301.0903,N,00537.4310,E,12.51,229.83,030605,,*3D
$GPRMC,123446.323,A,5301.0617,N,00537.3753,E,12.09,233.08,030605,,*33
$GPRMC,123458.322,A,5301.0343,N,00537.3243,E,12.26,225.75,030605,,*3D
$GPRMC,123511.322,A,5301.0064,N,00537.2694,E,11.38,228.53,030605,,*3D
$GPRMC,123523.321,A,5300.9789,N,00537.2319,E,9.05,198.35,030605,,*0C
$GPRMC,123535.320,A,5300.9643,N,00537.1901,E,10.58,234.18,030605,,*37
$GPRMC,123547.319,A,5300.9478,N,00537.1469,E,7.90,229.98,030605,,*07
$GPRMC,123600.319,A,5300.9266,N,00537.1012,E,8.70,240.40,030605,,*0D
$GPRMC,123625.317,A,5300.8779,N,00537.0163,E,9.40,221.59,030605,,*05
$GPRMC,123637.316,A,5300.8539,N,00536.9954,E,6.82,219.24,030605,,*05
$GPRMC,123715.314,A,5300.7885,N,00537.0528,E,8.18,129.99,030605,,*07
$GPRMC,123727.313,A,5300.7766,N,00537.0830,E,6.29,119.91,030605,,*00
$GPRMC,123816.310,A,5300.6993,N,00537.2055,E,7.63,147.54,030605,,*0F
$GPRMC,123841.309,A,5300.6593,N,00537.2602,E,7.12,124.18,030605,,*06
$GPRMC,123853.308,A,5300.6512,N,00537.2893,E,6.14,121.61,030605,,*07
$GPRMC,123905.307,A,5300.6454,N,00537.3115,E,2.59,120.04,030605,,*00
$GPRMC,123930.306,A,5300.6377,N,00537.3377,E,1.22,124.37,030605,,*0C
$GPRMC,123942.305,A,5300.6339,N,00537.3483,E,1.67,118.55,030605,,*06
$GPRMC,124031.302,A,5300.6395,N,00537.3541,E,1.25,59.47,030605,,*33
$GPRMC,124043.302,A,5300.6323,N,00537.3328,E,0.00,267.08,030605,,*00
$GPRMC,124120.299,A,5300.6411,N,00537.3867,E,0.62,242.61,030605,,*0D
$GPRMC,124132.299,A,5300.6310,N,00537.3599,E,0.00,59.11,030605,,*3F
$GPRMC,124221.296,A,5300.6350,N,00537.3588,E,3.21,50.82,030605,,*36
$GPRMC,124233.295,A,5300.6409,N,00537.3692,E,2.43,50.01,030605,,*3B
$GPRMC,133707.462,A,5300.6304,N,00537.3460,E,0.33,123.46,030605,,*07
$GPRMC,134428.436,A,5300.1819,N,00538.1045,E,11.01,170.20,030605,,*36
$GPRMC,134542.431,A,5259.9585,N,00538.1648,E,10.96,169.73,030605,,*3B
$GPRMC,134554.430,A,5259.9233,N,00538.1746,E,11.15,169.54,030605,,*37
$GPRMC,134619.429,A,5259.8508,N,00538.1919,E,11.39,166.75,030605,,*3D
$GPRMC,134631.428,A,5259.8146,N,00538.2012,E,11.26,172.22,030605,,*30
$GPRMC,134656.427,A,5259.7430,N,00538.2178,E,7.96,183.76,030605,,*0B
$GPRMC,134708.426,A,5259.7157,N,00538.2092,E,9.42,196.34,030605,,*04
$GPRMC,134757.423,A,5259.6301,N,00538.0438,E,12.21,258.66,030605,,*34
$GPRMC,134822.421,A,5259.6098,N,00537.9140,E,10.39,242.10,030605,,*35
$GPRMC,134834.421,A,5259.5915,N,00537.8654,E,10.54,229.17,030605,,*3F
$GPRMC,134859.419,A,5259.5301,N,00537.8063,E,10.88,193.59,030605,,*3B
$GPRMC,134911.419,A,5259.4937,N,00537.8022,E,10.29,178.24,030605,,*39
$GPRMC,134923.418,A,5259.4598,N,00537.8109,E,10.49,172.51,030605,,*36
$GPRMC,135012.415,A,5259.3116,N,00537.8756,E,11.70,165.49,030605,,*3C
$GPRMC,135024.414,A,5259.2736,N,00537.8910,E,11.44,166.97,030605,,*36
$GPRMC,135049.413,A,5259.1962,N,00537.9278,E,11.00,164.26,030605,,*3A
$GPRMC,135214.407,A,5258.9307,N,00538.0781,E,13.29,167.33,030605,,*3E
$GPRMC,135226.407,A,5258.8907,N,00538.0856,E,12.71,170.19,030605,,*33
$GPRMC,135250.405,A,5258.8074,N,00538.1146,E,12.26,167.50,030605,,*3D
$GPRMC,135303.404,A,5258.7635,N,00538.1284,E,12.46,168.31,030605,,*34
$GPRMC,135313.404,A,5258.7299,N,00538.1398,E,11.02,165.35,030605,,*31
$GPRMC,135417.400,A,5258.6949,N,00538.4007,E,10.93,92.97,030605,,*09
$GPRMC,135429.399,A,5258.6953,N,00538.4620,E,11.19,91.61,030605,,*02
$GPRMC,135506.397,A,5258.7122,N,00538.6527,E,10.94,86.92,030605,,*07
$GPRMC,135531.395,A,5258.7213,N,00538.7526,E,9.63,91.40,030605,,*39
$GPRMC,135543.395,A,5258.7171,N,00538.8107,E,11.60,101.82,030605,,*3F
$GPRMC,135607.393,A,5258.7160,N,00538.9269,E,10.11,90.84,030605,,*08
$GPRMC,135632.392,A,5258.7084,N,00538.9889,E,9.20,179.49,030605,,*0D
$GPRMC,135644.391,A,5258.6758,N,00538.9897,E,10.23,174.30,030605,,*3F
$GPRMC,135656.390,A,5258.6389,N,00538.9916,E,9.24,181.12,030605,,*08
$GPRMC,135733.388,A,5258.5337,N,00538.9874,E,9.38,186.42,030605,,*0F
$GPRMC,135745.387,A,5258.5013,N,00538.9908,E,8.74,177.64,030605,,*0D
$GPRMC,135834.384,A,5258.3774,N,00538.9908,E,8.93,172.53,030605,,*0F
$GPRMC,135911.382,A,5258.2752,N,00539.0037,E,9.70,180.73,030605,,*04
$GPRMC,135923.381,A,5258.2409,N,00539.0128,E,10.33,173.63,030605,,*36
$GPRMC,140012.378,A,5258.1500,N,00539.0144,E,0.00,352.44,030605,,*0D
$GPRMC,140047.376,A,5258.1399,N,00539.0162,E,5.11,169.43,030605,,*09
$GPRMC,140114.375,A,5258.0955,N,00539.0267,E,7.68,172.49,030605,,*0C
$GPRMC,140151.372,A,5258.0096,N,00539.0446,E,8.42,166.52,030605,,*01
$GPRMC,140203.372,A,5257.9812,N,00539.0522,E,8.19,172.06,030605,,*0E
$GPRMC,140252.369,A,5257.9225,N,00539.0572,E,0.00,245.84,030605,,*06
$GPRMC,140317.367,A,5257.9058,N,00539.0651,E,7.56,173.23,030605,,*0D
$GPRMC,140329.367,A,5257.8744,N,00539.0622,E,11.71,179.29,030605,,*3D
$GPRMC,140406.364,A,5257.7541,N,00539.0822,E,12.90,175.71,030605,,*3F
$GPRMC,140418.364,A,5257.7135,N,00539.0859,E,11.34,172.83,030605,,*3C
$GPRMC,140507.361,A,5257.5432,N,00539.1167,E,11.77,176.36,030605,,*3E
$GPRMC,140532.359,A,5257.4528,N,00539.1340,E,13.97,176.77,030605,,*36
$GPRMC,140602.357,A,5257.3490,N,00539.1529,E,12.63,170.68,030605,,*36
$GPRMC,140614.357,A,5257.3083,N,00539.1580,E,12.86,174.50,030605,,*30
$GPRMC,140704.353,A,5257.1195,N,00539.1925,E,13.15,175.41,030605,,*39
$GPRMC,140736.352,A,5257.0049,N,00539.2058,E,12.22,178.09,030605,,*3C
$GPRMC,140802.350,A,5256.9130,N,00539.2219,E,13.55,172.39,030605,,*3E
$GPRMC,140916.345,A,5256.6493,N,00539.2721,E,11.78,168.65,030605,,*3C
$GPRMC,141118.338,A,5256.5528,N,00538.8079,E,12.60,275.52,030605,,*33
$GPRMC,141129.337,A,5256.5561,N,00538.7474,E,11.22,273.89,030605,,*30
$GPRMC,141142.337,A,5256.5598,N,00538.6877,E,11.29,273.61,030605,,*38
$GPRMC,141155.336,A,5256.5594,N,00538.6153,E,12.04,267.46,030605,,*30
$GPRMC,141156.336,A,5256.5591,N,00538.6101,E,11.48,268.81,030605,,*3E
$GPRMC,141220.334,A,5256.5614,N,00538.4883,E,11.04,277.67,030605,,*3F
$GPRMC,141232.334,A,5256.5650,N,00538.4295,E,10.01,273.91,030605,,*38
$GPRMC,141243.333,A,5256.5678,N,00538.3754,E,10.90,280.15,030605,,*34
$GPRMC,141256.332,A,5256.5717,N,00538.3066,E,12.75,275.42,030605,,*3E
$GPRMC,141308.331,A,5256.5751,N,00538.2380,E,11.96,276.25,030605,,*33
$GPRMC,141321.331,A,5256.5808,N,00538.1697,E,12.24,276.01,030605,,*37
$GPRMC,141334.330,A,5256.5837,N,00538.0992,E,11.60,275.29,030605,,*3F
$GPRMC,141346.329,A,5256.5876,N,00538.0438,E,10.36,273.89,030605,,*34
$GPRMC,141359.328,A,5256.5932,N,00537.9831,E,10.32,278.28,030605,,*3D
$GPRMC,141411.328,A,5256.5961,N,00537.9352,E,7.75,273.31,030605,,*08
$GPRMC,141423.327,A,5256.5990,N,00537.8900,E,7.88,273.74,030605,,*07
$GPRMC,141436.326,A,5256.6021,N,00537.8429,E,8.15,278.68,030605,,*09
$GPRMC,141448.325,A,5256.6049,N,00537.8181,E,5.00,282.69,030605,,*07
$GPRMC,141501.325,A,5256.6144,N,00537.7653,E,9.63,293.99,030605,,*06
$GPRMC,141513.324,A,5256.6281,N,00537.7196,E,10.27,294.41,030605,,*3A
$GPRMC,141538.322,A,5256.6294,N,00537.6123,E,8.52,248.63,030605,,*04
$GPRMC,141549.322,A,5256.6205,N,00537.5691,E,10.47,255.00,030605,,*33
$GPRMC,141602.321,A,5256.6103,N,00537.5136,E,9.75,252.74,030605,,*0E
$GPRMC,141627.319,A,5256.5856,N,00537.4388,E,9.49,236.42,030605,,*06
$GPRMC,141639.319,A,5256.5633,N,00537.3976,E,10.38,223.60,030605,,*32
$GPRMC,141651.318,A,5256.5406,N,00537.3565,E,10.36,229.35,030605,,*33
$GPRMC,141703.317,A,5256.5191,N,00537.3193,E,8.17,217.56,030605,,*0E
$GPRMC,141716.316,A,5256.5034,N,00537.2933,E,8.95,269.03,030605,,*05
$GPRMC,141728.316,A,5256.4818,N,00537.2452,E,11.79,227.40,030605,,*32
$GPRMC,141741.315,A,5256.4496,N,00537.1910,E,12.96,229.52,030605,,*33
$GPRMC,141805.313,A,5256.3907,N,00537.0867,E,12.75,230.77,030605,,*3A
$GPRMC,141818.313,A,5256.3593,N,00537.0288,E,13.12,229.55,030605,,*34
$GPRMC,141842.311,A,5256.3020,N,00536.9257,E,13.50,230.48,030605,,*3C
$GPRMC,141854.311,A,5256.2718,N,00536.8718,E,13.23,230.52,030605,,*36
$GPRMC,141907.310,A,5256.2375,N,00536.8159,E,13.02,223.10,030605,,*3B
$GPRMC,141919.309,A,5256.2073,N,00536.7635,E,12.98,226.49,030605,,*30
$GPRMC,141932.308,A,5256.1749,N,00536.7050,E,12.93,229.76,030605,,*38
$GPRMC,141956.307,A,5256.1175,N,00536.5981,E,13.58,227.63,030605,,*37
$GPRMC,142009.306,A,5256.0824,N,00536.5413,E,13.84,226.17,030605,,*3F
$GPRMC,142021.305,A,5256.0512,N,00536.4890,E,11.89,227.49,030605,,*3D
$GPRMC,142045.304,A,5255.9917,N,00536.3827,E,14.23,228.00,030605,,*31
$GPRMC,142057.303,A,5255.9621,N,00536.3280,E,13.07,228.51,030605,,*3D
$GPRMC,142109.302,A,5255.9326,N,00536.2754,E,13.30,228.81,030605,,*30
$GPRMC,142122.302,A,5255.9004,N,00536.2150,E,13.13,227.99,030605,,*3F
$GPRMC,142134.301,A,5255.8696,N,00536.1652,E,12.95,227.03,030605,,*3D
$GPRMC,142451.289,A,5255.3005,N,00535.6664,E,13.00,181.37,030605,,*39
$GPRMC,142503.288,A,5255.2566,N,00535.6664,E,12.30,181.36,030605,,*3C
$GPRMC,142514.288,A,5255.2181,N,00535.6630,E,12.86,182.70,030605,,*3A
$GPRMC,142527.287,A,5255.1695,N,00535.6637,E,13.23,181.00,030605,,*39
$GPRMC,142539.286,A,5255.1275,N,00535.6563,E,12.76,189.88,030605,,*36
$GPRMC,142552.285,A,5255.0818,N,00535.6371,E,13.92,189.69,030605,,*39
$GPRMC,142604.285,A,5255.0541,N,00535.6043,E,10.54,207.23,030605,,*38
$GPRMC,142617.284,A,5255.0219,N,00535.5645,E,11.10,222.19,030605,,*3D
$GPRMC,142629.283,A,5254.9927,N,00535.5159,E,12.69,223.94,030605,,*3A
$GPRMC,142641.282,A,5254.9608,N,00535.4644,E,13.39,225.16,030605,,*35
$GPRMC,142653.282,A,5254.9354,N,00535.4188,E,8.46,234.02,030605,,*0A
$GPRMC,142705.281,A,5254.9206,N,00535.3917,E,4.82,221.92,030605,,*0D
$GPRMC,142717.280,A,5254.9095,N,00535.3708,E,4.99,227.61,030605,,*07
$GPRMC,142729.279,A,5254.9020,N,00535.3569,E,2.07,242.65,030605,,*01
$GPRMC,142742.279,A,5254.9001,N,00535.3473,E,0.27,239.05,030605,,*0F
$GPRMC,142754.278,A,5254.9000,N,00535.3498,E,0.00,179.41,030605,,*0F
$GPRMC,143137.264,A,5254.9012,N,00535.3508,E,1.62,76.10,030605,,*34
$GPRMC,143149.264,A,5254.8944,N,00535.3442,E,0.95,246.78,030605,,*0F
$GPRMC,143155.263,A,5254.8971,N,00535.3408,E,0.00,324.09,030605,,*02
$GPRMC,143221.262,A,5254.8727,N,00535.2962,E,9.36,232.24,030605,,*0B
$GPRMC,143234.261,A,5254.8472,N,00535.2471,E,11.36,227.05,030605,,*3E
$GPRMC,143246.260,A,5254.8139,N,00535.2147,E,12.56,199.07,030605,,*31
$GPRMC,143253.260,A,5254.7905,N,00535.2009,E,12.84,198.19,030605,,*37
$GPRMC,143319.258,A,5254.7121,N,00535.1454,E,11.77,206.44,030605,,*31
$GPRMC,143332.257,A,5254.6717,N,00535.1122,E,12.68,210.97,030605,,*35
$GPRMC,143344.257,A,5254.6343,N,00535.0779,E,12.98,218.72,030605,,*34
$GPRMC,143356.256,A,5254.6013,N,00535.0296,E,13.65,232.48,030605,,*36
$GPRMC,143409.255,A,5254.5737,N,00534.9622,E,13.27,236.65,030605,,*34
$GPRMC,143421.254,A,5254.5485,N,00534.9031,E,12.92,237.86,030605,,*32
$GPRMC,143422.254,A,5254.5465,N,00534.8981,E,12.92,235.58,030605,,*3D
$GPRMC,143448.253,A,5254.4805,N,00534.7922,E,13.30,212.91,030605,,*32
$GPRMC,143512.251,A,5254.3986,N,00534.7429,E,14.07,186.85,030605,,*3D
$GPRMC,143524.251,A,5254.3564,N,00534.7345,E,12.65,185.79,030605,,*37
$GPRMC,143559.248,A,5254.2384,N,00534.7444,E,10.70,148.82,030605,,*39
$GPRMC,143612.248,A,5254.2092,N,00534.7878,E,11.56,138.67,030605,,*3B
$GPRMC,143650.245,A,5254.1291,N,00534.9196,E,11.31,145.04,030605,,*3B
$GPRMC,143739.242,A,5254.0091,N,00535.0214,E,7.29,169.93,030605,,*0E
$GPRMC,143750.242,A,5253.9878,N,00535.0247,E,7.51,138.23,030605,,*06
$GPRMC,143804.241,A,5253.9691,N,00535.0236,E,5.05,218.61,030605,,*00
$GPRMC,143817.240,A,5253.9563,N,00534.9963,E,5.98,235.32,030605,,*03
$GPRMC,143828.239,A,5253.9419,N,00534.9772,E,4.11,144.31,030605,,*05
$GPRMC,143931.236,A,5253.8691,N,00535.1600,E,8.96,120.78,030605,,*01
$GPRMC,143943.235,A,5253.8498,N,00535.2057,E,9.96,125.36,030605,,*05
$GPRMC,144057.230,A,5253.7529,N,00535.4909,E,8.78,109.63,030605,,*04
$GPRMC,144242.224,A,5253.6148,N,00535.8188,E,12.01,127.88,030605,,*34
$GPRMC,144243.224,A,5253.6127,N,00535.8232,E,12.03,128.27,030605,,*36
$GPRMC,144436.217,A,5253.4134,N,00536.3279,E,10.77,72.49,030605,,*02
$GPRMC,144744.206,A,5253.3810,N,00537.3077,E,12.57,129.35,030605,,*35
$GPRMC,144912.200,A,5253.3035,N,00537.3981,E,6.07,243.46,030605,,*0A
$GPRMC,150057.158,A,5252.7742,N,00536.6449,E,0.00,222.06,030605,,*04
$GPRMC,150058.158,A,5252.7741,N,00536.6463,E,0.00,222.06,030605,,*00
$GPRMC,150203.154,A,5252.7780,N,00536.6516,E,0.00,167.54,030605,,*0B
$GPRMC,150306.150,A,5252.7743,N,00536.6508,E,0.00,169.96,030605,,*0B
$GPRMC,150343.148,A,5252.7655,N,00536.6470,E,0.40,126.08,030605,,*03
$GPRMC,150432.145,A,5252.7696,N,00536.6517,E,1.54,240.75,030605,,*0D
$GPRMC,150602.139,A,5252.7695,N,00536.6545,E,0.00,140.17,030605,,*04
$GPRMC,150614.139,A,5252.7696,N,00536.6567,E,0.46,176.25,030605,,*06
$GPRMC,150626.138,A,5252.7700,N,00536.6518,E,0.00,186.12,030605,,*09
$GPRMC,150651.136,A,5252.7685,N,00536.6538,E,0.00,214.35,030605,,*04
$GPRMC,150703.136,A,5252.7683,N,00536.6528,E,3.11,270.53,030605,,*04
$GPRMC,150728.134,A,5252.7695,N,00536.6500,E,0.00,167.37,030605,,*06
$GPRMC,150808.132,A,5252.7660,N,00536.6469,E,0.28,207.92,030605,,*09
$GPRMC,150857.129,A,5252.7332,N,00536.6133,E,6.57,222.55,030605,,*03
$GPRMC,150922.127,A,5252.7172,N,00536.5261,E,7.90,236.76,030605,,*01
$GPRMC,150934.126,A,5252.7009,N,00536.4977,E,6.13,215.58,030605,,*00
$GPRMC,150946.126,A,5252.6813,N,00536.4648,E,8.64,224.78,030605,,*0A
$GPRMC,151011.124,A,5252.6460,N,00536.4208,E,6.67,209.60,030605,,*01
$GPRMC,151023.123,A,5252.6275,N,00536.4074,E,4.49,193.79,030605,,*0A
$GPRMC,151112.121,A,5252.5575,N,00536.3738,E,3.76,201.49,030605,,*07
$GPRMC,151124.120,A,5252.5465,N,00536.3667,E,2.23,208.24,030605,,*0B
$GPRMC,151136.119,A,5252.5351,N,00536.3604,E,3.14,199.25,030605,,*08
$GPRMC,151148.118,A,5252.5250,N,00536.3525,E,3.59,196.95,030605,,*0D
$GPRMC,151201.118,A,5252.5112,N,00536.3386,E,3.20,207.94,030605,,*0D
$GPRMC,151213.117,A,5252.4977,N,00536.3229,E,6.71,217.86,030605,,*0C
$GPRMC,152149.082,A,5251.9076,N,00535.1654,E,5.09,243.00,030605,,*04
$GPRMC,152202.081,A,5251.9013,N,00535.1450,E,3.27,232.90,030605,,*0B
$GPRMC,152214.080,A,5251.8925,N,00535.1203,E,5.31,239.51,030605,,*07
$GPRMC,152227.080,A,5251.8829,N,00535.0930,E,6.36,239.34,030605,,*07
$GPRMC,152239.079,A,5251.8708,N,00535.0621,E,6.76,230.38,030605,,*0C
$GPRMC,152251.078,A,5251.8591,N,00535.0345,E,6.31,235.79,030605,,*05
$GPRMC,152303.077,A,5251.8467,N,00535.0077,E,5.70,233.10,030605,,*09
$GPRMC,152316.077,A,5251.8337,N,00534.9824,E,6.51,230.75,030605,,*09
$GPRMC,152328.076,A,5251.8201,N,00534.9546,E,6.41,233.27,030605,,*0D
$GPRMC,152339.075,A,5251.8084,N,00534.9302,E,6.06,231.72,030605,,*06
$GPRMC,152352.074,A,5251.7966,N,00534.9052,E,5.99,229.74,030605,,*0C
$GPRMC,152404.074,A,5251.7851,N,00534.8766,E,6.67,236.74,030605,,*00
$GPRMC,152417.073,A,5251.7705,N,00534.8426,E,6.62,242.07,030605,,*0E
$GPRMC,152429.072,A,5251.7602,N,00534.8114,E,6.41,242.32,030605,,*07
$GPRMC,152442.071,A,5251.7485,N,00534.7791,E,6.22,236.08,030605,,*0F
$GPRMC,152454.071,A,5251.7363,N,00534.7516,E,6.19,229.77,030605,,*04
$GPRMC,152519.069,A,5251.7033,N,00534.6797,E,9.17,231.67,030605,,*00
$GPRMC,152544.068,A,5251.6651,N,00534.5981,E,8.47,227.43,030605,,*05
$GPRMC,152556.067,A,5251.6479,N,00534.5666,E,8.25,222.91,030605,,*09
$GPRMC,152608.066,A,5251.6285,N,00534.5360,E,8.24,220.46,030605,,*0F
$GPRMC,152620.065,A,5251.6079,N,00534.5042,E,8.30,221.86,030605,,*0C
$GPRMC,152633.065,A,5251.5885,N,00534.4761,E,6.09,219.27,030605,,*05
$GPRMC,152812.059,A,5251.5247,N,00534.3618,E,0.42,350.70,030605,,*0C
$GPRMC,152820.058,A,5251.5258,N,00534.3620,E,0.43,352.83,030605,,*06
$GPRMC,153601.030,A,5251.4874,N,00534.4058,E,0.00,352.83,030605,,*08
