$GPRMC,144637.384,A,5304.1250,N,00520.2283,E,0.00,62.01,260805,,*3B
$GPRMC,144649.383,A,5304.1268,N,00520.2243,E,0.00,62.01,260805,,*32
$GPRMC,144702.383,A,5304.1248,N,00520.2226,E,0.00,62.01,260805,,*3D
$GPRMC,144715.382,A,5304.1254,N,00520.2246,E,0.00,62.01,260805,,*31
$GPRMC,144726.381,A,5304.1234,N,00520.2230,E,0.00,210.22,260805,,*03
$GPRMC,144739.380,A,5304.1230,N,00520.2229,E,0.00,285.18,260805,,*05
$GPRMC,144751.379,A,5304.1233,N,00520.2244,E,0.00,285.18,260805,,*05
$GPRMC,144803.379,A,5304.1229,N,00520.2244,E,0.00,216.41,260805,,*00
$GPRMC,144815.378,A,5304.1224,N,00520.2236,E,0.00,216.41,260805,,*0E
$GPRMC,144830.377,A,5304.1229,N,00520.2238,E,0.00,17.56,260805,,*30
$GPRMC,144840.376,A,5304.1233,N,00520.2243,E,0.00,224.38,260805,,*0B
$GPRMC,144856.375,A,5304.1244,N,00520.2250,E,0.00,224.38,260805,,*0D
$GPRMC,144908.374,A,5304.1239,N,00520.2277,E,0.00,35.31,260805,,*32
$GPRMC,144920.374,A,5304.1270,N,00520.2297,E,2.57,345.33,260805,,*0D
$GPRMC,144932.373,A,5304.1382,N,00520.2259,E,3.29,352.55,260805,,*09
$GPRMC,144945.372,A,5304.1492,N,00520.2224,E,3.31,347.15,260805,,*0D
$GPRMC,144956.371,A,5304.1607,N,00520.2150,E,4.12,336.78,260805,,*09
$GPRMC,145009.370,A,5304.1759,N,00520.2095,E,4.25,342.67,260805,,*01
$GPRMC,145021.370,A,5304.1909,N,00520.2041,E,4.35,354.18,260805,,*07
$GPRMC,145033.369,A,5304.2045,N,00520.2007,E,3.47,348.87,260805,,*05
$GPRMC,145045.368,A,5304.2163,N,00520.1934,E,3.82,347.91,260805,,*0B
$GPRMC,145058.367,A,5304.2329,N,00520.1834,E,5.86,357.04,260805,,*0A
$GPRMC,145110.366,A,5304.2526,N,00520.1788,E,5.96,357.79,260805,,*0C
$GPRMC,145122.366,A,5304.2712,N,00520.1728,E,5.77,352.37,260805,,*02
$GPRMC,145135.365,A,5304.2906,N,00520.1677,E,5.35,349.09,260805,,*06
$GPRMC,145148.364,A,5304.3103,N,00520.1597,E,6.20,350.95,260805,,*06
$GPRMC,145200.363,A,5304.3310,N,00520.1524,E,6.57,352.89,260805,,*09
$GPRMC,145213.362,A,5304.3543,N,00520.1452,E,6.61,353.44,260805,,*0F
$GPRMC,145225.362,A,5304.3756,N,00520.1385,E,6.12,346.35,260805,,*07
$GPRMC,145238.361,A,5304.3985,N,00520.1299,E,6.35,339.67,260805,,*0E
$GPRMC,145250.360,A,5304.4192,N,00520.1219,E,6.02,342.69,260805,,*06
$GPRMC,145302.359,A,5304.4365,N,00520.1139,E,5.65,337.06,260805,,*08
$GPRMC,145314.358,A,5304.4560,N,00520.1064,E,5.91,348.22,260805,,*01
$GPRMC,145326.358,A,5304.4781,N,00520.1002,E,6.26,356.71,260805,,*0B
$GPRMC,145339.357,A,5304.5012,N,00520.0941,E,6.34,348.23,260805,,*02
$GPRMC,145349.356,A,5304.5180,N,00520.0847,E,6.38,341.45,260805,,*0C
$GPRMC,145403.355,A,5304.5417,N,00520.0705,E,6.70,341.51,260805,,*0D
$GPRMC,145416.354,A,5304.5645,N,00520.0586,E,6.56,338.48,260805,,*06
$GPRMC,145417.354,A,5304.5661,N,00520.0575,E,6.55,335.56,260805,,*0C
$GPRMC,145418.354,A,5304.5677,N,00520.0562,E,6.58,333.57,260805,,*08
$GPRMC,145506.351,A,5304.6332,N,00520.0038,E,2.87,321.70,260805,,*0E
$GPRMC,145518.350,A,5304.6372,N,00519.9969,E,1.15,327.44,260805,,*03
$GPRMC,145531.350,A,5304.6394,N,00519.9947,E,1.40,1.55,260805,,*0B
$GPRMC,145543.349,A,5304.6437,N,00519.9901,E,1.69,303.39,260805,,*0A
$GPRMC,145556.348,A,5304.6446,N,00519.9807,E,1.44,264.78,260805,,*04
$GPRMC,145609.347,A,5304.6441,N,00519.9750,E,0.54,251.93,260805,,*0B
$GPRMC,145621.346,A,5304.6435,N,00519.9733,E,0.00,213.03,260805,,*08
$GPRMC,145634.345,A,5304.6441,N,00519.9766,E,0.66,159.87,260805,,*0D
$GPRMC,145646.345,A,5304.6413,N,00519.9789,E,1.47,143.01,260805,,*09
$GPRMC,145747.341,A,5304.5995,N,00520.0257,E,4.02,166.55,260805,,*0A
$GPRMC,145811.339,A,5304.5966,N,00520.0099,E,3.06,353.23,260805,,*03
$GPRMC,145823.338,A,5304.6048,N,00520.0009,E,2.28,299.29,260805,,*0C
$GPRMC,145836.338,A,5304.6049,N,00519.9948,E,0.00,245.17,260805,,*02
$GPRMC,145847.337,A,5304.6046,N,00519.9951,E,0.48,101.12,260805,,*06
$GPRMC,145913.335,A,5304.5987,N,00520.0017,E,0.84,141.77,260805,,*0C
$GPRMC,145937.334,A,5304.5914,N,00520.0037,E,0.00,210.18,260805,,*01
$GPRMC,145949.333,A,5304.5908,N,00520.0027,E,0.45,273.23,260805,,*0F
$GPRMC,150002.332,A,5304.5924,N,00519.9990,E,1.33,337.54,260805,,*05
$GPRMC,150015.331,A,5304.5960,N,00519.9913,E,1.15,277.12,260805,,*08
$GPRMC,150026.330,A,5304.5937,N,00519.9866,E,1.35,197.52,260805,,*03
$GPRMC,150104.328,A,5304.5811,N,00520.0308,E,4.27,112.52,260805,,*05
$GPRMC,150141.326,A,5304.5429,N,00520.0517,E,4.19,183.81,260805,,*0E
$GPRMC,150153.325,A,5304.5355,N,00520.0391,E,2.32,291.60,260805,,*0A
$GPRMC,150205.324,A,5304.5436,N,00520.0323,E,3.66,4.61,260805,,*0F
$GPRMC,150229.323,A,5304.5714,N,00520.0306,E,4.62,354.31,260805,,*02
$GPRMC,150306.320,A,5304.6218,N,00520.0269,E,5.64,1.84,260805,,*05
$GPRMC,150318.319,A,5304.6404,N,00520.0269,E,5.76,2.50,260805,,*02
$GPRMC,150331.319,A,5304.6631,N,00520.0314,E,6.33,6.09,260805,,*0C
$GPRMC,150343.318,A,5304.6845,N,00520.0372,E,6.34,10.68,260805,,*32
$GPRMC,150355.317,A,5304.7058,N,00520.0441,E,6.09,4.96,260805,,*02
$GPRMC,150408.316,A,5304.7264,N,00520.0583,E,6.60,26.83,260805,,*35
$GPRMC,150420.315,A,5304.7453,N,00520.0753,E,6.39,28.51,260805,,*3C
$GPRMC,150432.315,A,5304.7642,N,00520.0901,E,6.13,22.24,260805,,*34
$GPRMC,150445.314,A,5304.7840,N,00520.0987,E,5.57,11.97,260805,,*3C
$GPRMC,150456.313,A,5304.8001,N,00520.1026,E,5.85,4.43,260805,,*0A
$GPRMC,150509.312,A,5304.8227,N,00520.1074,E,6.30,10.62,260805,,*3A
$GPRMC,150521.311,A,5304.8434,N,00520.1171,E,6.63,20.39,260805,,*38
$GPRMC,150533.311,A,5304.8635,N,00520.1304,E,6.47,12.06,260805,,*33
$GPRMC,150546.310,A,5304.8860,N,00520.1394,E,6.90,13.25,260805,,*3D
$GPRMC,150559.309,A,5304.9083,N,00520.1465,E,6.28,13.73,260805,,*36
$GPRMC,150611.308,A,5304.9285,N,00520.1544,E,6.63,18.49,260805,,*33
$GPRMC,150624.307,A,5304.9484,N,00520.1659,E,5.55,32.46,260805,,*33
$GPRMC,150636.307,A,5304.9650,N,00520.1762,E,4.41,20.44,260805,,*37
$GPRMC,150649.306,A,5304.9815,N,00520.1922,E,4.94,46.13,260805,,*31
$GPRMC,150701.305,A,5304.9949,N,00520.2090,E,6.69,34.53,260805,,*35
$GPRMC,150713.304,A,5305.0076,N,00520.2268,E,4.80,52.97,260805,,*32
$GPRMC,150726.303,A,5305.0219,N,00520.2471,E,3.96,33.69,260805,,*30
$GPRMC,150738.303,A,5305.0322,N,00520.2652,E,4.45,44.82,260805,,*39
$GPRMC,150751.302,A,5305.0434,N,00520.2868,E,3.31,38.11,260805,,*35
$GPRMC,150803.301,A,5305.0513,N,00520.3057,E,5.70,47.24,260805,,*32
$GPRMC,150815.300,A,5305.0654,N,00520.3207,E,4.54,34.22,260805,,*36
$GPRMC,150827.299,A,5305.0779,N,00520.3381,E,4.42,62.43,260805,,*34
$GPRMC,150840.299,A,5305.0889,N,00520.3626,E,4.84,52.45,260805,,*32
$GPRMC,150851.298,A,5305.0956,N,00520.3816,E,4.15,59.24,260805,,*39
$GPRMC,150905.297,A,5305.1073,N,00520.4056,E,4.37,33.40,260805,,*3C
$GPRMC,150917.296,A,5305.1177,N,00520.4243,E,4.94,60.08,260805,,*3E
$GPRMC,150929.295,A,5305.1254,N,00520.4448,E,4.34,60.80,260805,,*35
$GPRMC,150941.295,A,5305.1333,N,00520.4624,E,3.36,70.16,260805,,*38
$GPRMC,150954.294,A,5305.1449,N,00520.4816,E,4.97,26.50,260805,,*35
$GPRMC,151006.293,A,5305.1589,N,00520.4967,E,4.84,50.18,260805,,*38
$GPRMC,151019.292,A,5305.1685,N,00520.5219,E,5.18,59.09,260805,,*36
$GPRMC,151031.291,A,5305.1772,N,00520.5423,E,4.34,40.25,260805,,*30
$GPRMC,151043.291,A,5305.1864,N,00520.5650,E,5.55,66.96,260805,,*31
$GPRMC,151055.290,A,5305.1937,N,00520.5874,E,3.95,68.71,260805,,*35
$GPRMC,151107.289,A,5305.2013,N,00520.6091,E,4.53,63.85,260805,,*3A
$GPRMC,151120.288,A,5305.2081,N,00520.6320,E,4.68,66.37,260805,,*38
$GPRMC,151131.287,A,5305.2150,N,00520.6514,E,3.93,68.19,260805,,*3A
$GPRMC,151144.287,A,5305.2236,N,00520.6735,E,4.88,60.42,260805,,*31
$GPRMC,151156.286,A,5305.2295,N,00520.6941,E,4.57,56.63,260805,,*33
$GPRMC,151209.285,A,5305.2370,N,00520.7157,E,4.15,58.19,260805,,*38
$GPRMC,151221.284,A,5305.2463,N,00520.7366,E,4.25,49.63,260805,,*38
$GPRMC,151234.283,A,5305.2571,N,00520.7603,E,5.90,60.32,260805,,*3F
$GPRMC,151246.283,A,5305.2658,N,00520.7831,E,4.69,50.91,260805,,*30
$GPRMC,151258.282,A,5305.2740,N,00520.8031,E,4.49,57.84,260805,,*30
$GPRMC,151310.281,A,5305.2831,N,00520.8241,E,5.55,52.33,260805,,*37
$GPRMC,151323.280,A,5305.2950,N,00520.8467,E,4.18,47.51,260805,,*3A
$GPRMC,151335.279,A,5305.3036,N,00520.8673,E,4.79,54.95,260805,,*39
$GPRMC,151346.279,A,5305.3118,N,00520.8857,E,4.20,61.81,260805,,*37
$GPRMC,151359.278,A,5305.3201,N,00520.9091,E,4.76,51.14,260805,,*3C
$GPRMC,151411.277,A,5305.3297,N,00520.9291,E,4.36,56.41,260805,,*36
$GPRMC,151424.276,A,5305.3407,N,00520.9513,E,4.34,51.42,260805,,*35
$GPRMC,151436.275,A,5305.3462,N,00520.9731,E,4.55,65.87,260805,,*3D
$GPRMC,151449.275,A,5305.3560,N,00520.9972,E,5.19,54.04,260805,,*3F
$GPRMC,151501.274,A,5305.3666,N,00521.0202,E,4.56,45.85,260805,,*31
$GPRMC,151513.273,A,5305.3779,N,00521.0407,E,5.73,50.61,260805,,*31
$GPRMC,151526.272,A,5305.3896,N,00521.0663,E,5.75,51.12,260805,,*3B
$GPRMC,151539.271,A,5305.3991,N,00521.0934,E,4.76,68.38,260805,,*3D
$GPRMC,151551.271,A,5305.4091,N,00521.1182,E,5.01,57.11,260805,,*3F
$GPRMC,151603.270,A,5305.4205,N,00521.1423,E,5.60,49.98,260805,,*32
$GPRMC,151616.269,A,5305.4325,N,00521.1678,E,6.19,58.18,260805,,*34
$GPRMC,151628.268,A,5305.4442,N,00521.1915,E,5.76,50.13,260805,,*33
$GPRMC,151640.267,A,5305.4540,N,00521.2177,E,5.20,65.12,260805,,*3A
$GPRMC,151651.267,A,5305.4628,N,00521.2392,E,4.70,55.47,260805,,*39
$GPRMC,151704.266,A,5305.4731,N,00521.2618,E,5.07,49.82,260805,,*32
$GPRMC,151716.265,A,5305.4846,N,00521.2839,E,5.29,47.59,260805,,*34
$GPRMC,151728.264,A,5305.4959,N,00521.3055,E,5.15,45.00,260805,,*35
$GPRMC,151741.263,A,5305.5071,N,00521.3255,E,4.08,51.27,260805,,*30
$GPRMC,151753.263,A,5305.5175,N,00521.3448,E,5.09,47.54,260805,,*3F
$GPRMC,151806.262,A,5305.5281,N,00521.3674,E,4.07,52.75,260805,,*3C
$GPRMC,151819.261,A,5305.5381,N,00521.3895,E,5.09,48.38,260805,,*3C
$GPRMC,151831.260,A,5305.5480,N,00521.4083,E,4.89,48.34,260805,,*3C
$GPRMC,151842.260,A,5305.5568,N,00521.4274,E,5.42,53.89,260805,,*3F
$GPRMC,151855.259,A,5305.5679,N,00521.4486,E,5.09,48.03,260805,,*3C
$GPRMC,151908.258,A,5305.5802,N,00521.4690,E,4.99,45.03,260805,,*36
$GPRMC,151921.257,A,5305.5932,N,00521.4910,E,5.17,51.29,260805,,*3D
$GPRMC,151933.256,A,5305.6045,N,00521.5098,E,5.07,37.26,260805,,*33
$GPRMC,151945.255,A,5305.6176,N,00521.5288,E,5.77,44.61,260805,,*33
$GPRMC,151957.255,A,5305.6296,N,00521.5487,E,5.17,38.45,260805,,*3F
$GPRMC,152012.254,A,5305.6438,N,00521.5747,E,5.76,52.82,260805,,*38
$GPRMC,152024.253,A,5305.6549,N,00521.5967,E,5.67,43.74,260805,,*38
$GPRMC,152036.252,A,5305.6664,N,00521.6167,E,4.64,49.34,260805,,*31
$GPRMC,152049.251,A,5305.6775,N,00521.6393,E,4.89,53.21,260805,,*3E
$GPRMC,152057.251,A,5305.6841,N,00521.6546,E,4.99,55.19,260805,,*3B
$GPRMC,152105.250,A,5305.6922,N,00521.6672,E,4.49,47.59,260805,,*36
$GPRMC,152111.250,A,5305.6990,N,00521.6767,E,5.51,38.67,260805,,*32
$GPRMC,152112.250,A,5305.7002,N,00521.6781,E,5.08,33.72,260805,,*39
$GPRMC,152158.247,A,5305.7466,N,00521.7599,E,5.19,55.51,260805,,*3C
$GPRMC,152211.246,A,5305.7614,N,00521.7806,E,5.29,38.43,260805,,*34
$GPRMC,152224.245,A,5305.7753,N,00521.8023,E,5.01,41.71,260805,,*36
$GPRMC,152236.244,A,5305.7885,N,00521.8179,E,5.76,30.04,260805,,*3A
$GPRMC,152249.244,A,5305.8019,N,00521.8382,E,4.97,36.90,260805,,*33
$GPRMC,152301.243,A,5305.8152,N,00521.8552,E,5.26,37.26,260805,,*3B
$GPRMC,152314.242,A,5305.8289,N,00521.8735,E,4.33,46.42,260805,,*39
$GPRMC,152326.241,A,5305.8408,N,00521.8910,E,4.78,36.04,260805,,*37
$GPRMC,152339.240,A,5305.8547,N,00521.9079,E,4.85,36.80,260805,,*3B
$GPRMC,152352.239,A,5305.8693,N,00521.9267,E,5.19,45.66,260805,,*37
$GPRMC,152404.239,A,5305.8827,N,00521.9437,E,5.43,33.24,260805,,*39
$GPRMC,152416.238,A,5305.8978,N,00521.9582,E,5.38,34.06,260805,,*34
$GPRMC,152429.237,A,5305.9144,N,00521.9745,E,5.20,36.72,260805,,*30
$GPRMC,152441.236,A,5305.9292,N,00521.9917,E,5.03,28.29,260805,,*3E
$GPRMC,152454.235,A,5305.9443,N,00522.0104,E,5.63,40.34,260805,,*37
$GPRMC,152506.235,A,5305.9582,N,00522.0285,E,5.14,44.09,260805,,*3D
$GPRMC,152519.234,A,5305.9733,N,00522.0468,E,5.17,30.41,260805,,*33
$GPRMC,152531.233,A,5305.9884,N,00522.0599,E,5.19,34.05,260805,,*38
$GPRMC,152545.232,A,5306.0064,N,00522.0777,E,4.96,45.48,260805,,*3D
$GPRMC,152558.231,A,5306.0222,N,00522.0936,E,5.23,20.51,260805,,*3D
$GPRMC,152610.231,A,5306.0376,N,00522.1085,E,5.71,27.73,260805,,*32
$GPRMC,152623.230,A,5306.0544,N,00522.1231,E,4.89,19.87,260805,,*39
$GPRMC,152635.229,A,5306.0690,N,00522.1355,E,4.75,30.61,260805,,*3F
$GPRMC,152648.228,A,5306.0873,N,00522.1483,E,6.60,15.19,260805,,*35
$GPRMC,152700.227,A,5306.1038,N,00522.1599,E,5.08,29.71,260805,,*37
$GPRMC,152713.226,A,5306.1191,N,00522.1774,E,5.69,33.39,260805,,*37
$GPRMC,152725.226,A,5306.1338,N,00522.1912,E,5.04,21.91,260805,,*37
$GPRMC,152738.225,A,5306.1499,N,00522.2065,E,5.08,36.73,260805,,*38
$GPRMC,152750.224,A,5306.1637,N,00522.2204,E,4.81,37.14,260805,,*34
$GPRMC,152802.223,A,5306.1790,N,00522.2309,E,5.18,16.62,260805,,*38
$GPRMC,152815.222,A,5306.1967,N,00522.2429,E,6.16,19.06,260805,,*3C
$GPRMC,152826.222,A,5306.2114,N,00522.2538,E,5.33,19.10,260805,,*31
$GPRMC,152839.221,A,5306.2284,N,00522.2654,E,4.66,10.46,260805,,*34
$GPRMC,152852.220,A,5306.2454,N,00522.2747,E,5.17,15.83,260805,,*3B
$GPRMC,152904.219,A,5306.2620,N,00522.2772,E,5.40,359.15,260805,,*02
$GPRMC,152916.218,A,5306.2793,N,00522.2794,E,5.13,0.67,260805,,*0D
$GPRMC,152928.218,A,5306.2967,N,00522.2793,E,5.44,358.08,260805,,*07
$GPRMC,152941.217,A,5306.3153,N,00522.2792,E,5.08,3.25,260805,,*02
$GPRMC,152954.216,A,5306.3346,N,00522.2788,E,5.43,7.96,260805,,*09
$GPRMC,153006.215,A,5306.3528,N,00522.2824,E,5.54,1.89,260805,,*0C
$GPRMC,153017.215,A,5306.3686,N,00522.2834,E,4.63,1.97,260805,,*00
$GPRMC,153030.214,A,5306.3854,N,00522.2864,E,4.79,8.90,260805,,*05
$GPRMC,153043.213,A,5306.4016,N,00522.2908,E,4.58,11.01,260805,,*37
$GPRMC,153055.212,A,5306.4174,N,00522.2935,E,4.82,358.61,260805,,*05
$GPRMC,153106.211,A,5306.4319,N,00522.2935,E,4.15,355.72,260805,,*09
$GPRMC,153119.211,A,5306.4496,N,00522.2970,E,5.62,7.74,260805,,*05
$GPRMC,153131.210,A,5306.4661,N,00522.3003,E,5.31,357.82,260805,,*01
$GPRMC,153144.209,A,5306.4844,N,00522.3003,E,5.03,3.73,260805,,*0F
$GPRMC,153156.208,A,5306.5013,N,00522.2984,E,5.12,357.74,260805,,*04
$GPRMC,153209.207,A,5306.5182,N,00522.3023,E,5.14,10.96,260805,,*34
$GPRMC,153221.206,A,5306.5347,N,00522.3047,E,5.07,7.37,260805,,*09
$GPRMC,153233.206,A,5306.5515,N,00522.3066,E,4.74,358.89,260805,,*01
$GPRMC,153245.205,A,5306.5681,N,00522.3087,E,4.92,1.15,260805,,*00
$GPRMC,153257.204,A,5306.5832,N,00522.3119,E,5.13,11.18,260805,,*36
$GPRMC,153309.203,A,5306.5995,N,00522.3141,E,4.72,14.73,260805,,*34
$GPRMC,153321.203,A,5306.6167,N,00522.3148,E,4.87,3.18,260805,,*00
$GPRMC,153334.202,A,5306.6347,N,00522.3198,E,5.30,9.02,260805,,*04
$GPRMC,153346.201,A,5306.6519,N,00522.3234,E,5.04,359.66,260805,,*09
$GPRMC,153359.200,A,5306.6697,N,00522.3263,E,5.17,6.59,260805,,*06
$GPRMC,153411.199,A,5306.6864,N,00522.3284,E,4.80,9.90,260805,,*00
$GPRMC,153423.199,A,5306.7023,N,00522.3295,E,5.48,2.92,260805,,*07
$GPRMC,153435.198,A,5306.7187,N,00522.3329,E,4.84,2.17,260805,,*04
$GPRMC,153448.197,A,5306.7371,N,00522.3328,E,5.61,4.00,260805,,*01
$GPRMC,153501.196,A,5306.7548,N,00522.3337,E,5.14,356.70,260805,,*0F
$GPRMC,153513.195,A,5306.7704,N,00522.3352,E,5.43,7.97,260805,,*0A
$GPRMC,153525.195,A,5306.7858,N,00522.3369,E,5.15,8.77,260805,,*03
$GPRMC,153537.194,A,5306.8023,N,00522.3384,E,4.85,3.04,260805,,*0E
$GPRMC,153550.193,A,5306.8197,N,00522.3405,E,4.52,17.04,260805,,*37
$GPRMC,153602.192,A,5306.8357,N,00522.3437,E,4.48,358.66,260805,,*0A
$GPRMC,153614.191,A,5306.8512,N,00522.3453,E,4.67,4.65,260805,,*0F
$GPRMC,153626.191,A,5306.8669,N,00522.3473,E,5.05,13.01,260805,,*32
$GPRMC,153639.190,A,5306.8852,N,00522.3488,E,5.06,4.24,260805,,*0D
$GPRMC,153651.189,A,5306.9027,N,00522.3496,E,5.45,4.57,260805,,*0C
$GPRMC,153704.188,A,5306.9220,N,00522.3524,E,5.39,3.17,260805,,*09
$GPRMC,153716.187,A,5306.9400,N,00522.3522,E,5.51,354.76,260805,,*0F
$GPRMC,153728.187,A,5306.9585,N,00522.3543,E,5.65,359.88,260805,,*02
$GPRMC,153740.186,A,5306.9771,N,00522.3555,E,5.62,358.34,260805,,*02
$GPRMC,153753.185,A,5306.9970,N,00522.3576,E,5.36,9.12,260805,,*0F
$GPRMC,153805.184,A,5307.0152,N,00522.3541,E,5.33,354.67,260805,,*0A
$GPRMC,153816.183,A,5307.0307,N,00522.3566,E,4.93,8.77,260805,,*08
$GPRMC,153829.183,A,5307.0490,N,00522.3599,E,5.11,359.50,260805,,*04
$GPRMC,153841.182,A,5307.0659,N,00522.3582,E,5.05,351.49,260805,,*03
$GPRMC,153854.181,A,5307.0842,N,00522.3543,E,4.73,359.76,260805,,*09
$GPRMC,153906.180,A,5307.1010,N,00522.3594,E,4.37,19.92,260805,,*37
$GPRMC,153918.179,A,5307.1182,N,00522.3649,E,5.49,5.82,260805,,*03
$GPRMC,153930.179,A,5307.1356,N,00522.3715,E,4.64,13.56,260805,,*3A
$GPRMC,153943.178,A,5307.1535,N,00522.3752,E,5.43,9.59,260805,,*0F
$GPRMC,153955.177,A,5307.1699,N,00522.3800,E,4.97,14.24,260805,,*34
$GPRMC,154008.176,A,5307.1887,N,00522.3865,E,5.64,21.19,260805,,*34
$GPRMC,154021.175,A,5307.2078,N,00522.3980,E,5.87,28.14,260805,,*34
$GPRMC,154033.175,A,5307.2225,N,00522.4105,E,4.98,27.64,260805,,*38
$GPRMC,154045.174,A,5307.2399,N,00522.4168,E,5.73,10.73,260805,,*33
$GPRMC,154057.173,A,5307.2572,N,00522.4197,E,5.17,2.91,260805,,*09
$GPRMC,154109.172,A,5307.2757,N,00522.4240,E,5.52,3.04,260805,,*02
$GPRMC,154121.171,A,5307.2933,N,00522.4257,E,5.44,356.72,260805,,*04
$GPRMC,154134.171,A,5307.3127,N,00522.4244,E,5.15,12.47,260805,,*3F
$GPRMC,154146.170,A,5307.3303,N,00522.4288,E,5.31,359.19,260805,,*0E
$GPRMC,154158.169,A,5307.3479,N,00522.4334,E,5.83,14.64,260805,,*3C
$GPRMC,154212.168,A,5307.3682,N,00522.4387,E,5.63,13.25,260805,,*32
$GPRMC,154225.167,A,5307.3881,N,00522.4432,E,5.21,7.25,260805,,*0E
$GPRMC,154236.167,A,5307.4032,N,00522.4475,E,5.21,14.19,260805,,*35
$GPRMC,154249.166,A,5307.4219,N,00522.4472,E,5.25,1.68,260805,,*06
$GPRMC,154301.165,A,5307.4400,N,00522.4506,E,5.70,13.06,260805,,*3F
$GPRMC,154313.164,A,5307.4577,N,00522.4551,E,5.26,3.10,260805,,*0B
$GPRMC,154325.163,A,5307.4760,N,00522.4557,E,5.28,7.16,260805,,*07
$GPRMC,154338.163,A,5307.4948,N,00522.4591,E,5.74,3.56,260805,,*0C
$GPRMC,154351.162,A,5307.5147,N,00522.4625,E,5.55,13.67,260805,,*38
$GPRMC,154403.161,A,5307.5328,N,00522.4665,E,5.21,1.09,260805,,*0C
$GPRMC,154415.160,A,5307.5502,N,00522.4721,E,5.63,15.06,260805,,*39
$GPRMC,154427.159,A,5307.5676,N,00522.4794,E,5.46,2.12,260805,,*08
$GPRMC,154439.159,A,5307.5857,N,00522.4864,E,5.91,7.91,260805,,*0E
$GPRMC,154451.158,A,5307.6043,N,00522.4900,E,5.40,9.52,260805,,*01
$GPRMC,154504.157,A,5307.6241,N,00522.4942,E,5.96,13.67,260805,,*3F
$GPRMC,154516.156,A,5307.6420,N,00522.5030,E,5.57,17.36,260805,,*3C
$GPRMC,154529.155,A,5307.6613,N,00522.5154,E,5.32,24.99,260805,,*34
$GPRMC,154541.155,A,5307.6791,N,00522.5229,E,5.48,22.62,260805,,*37
$GPRMC,154554.154,A,5307.6986,N,00522.5307,E,5.56,16.49,260805,,*36
$GPRMC,154606.153,A,5307.7165,N,00522.5420,E,6.21,19.85,260805,,*3F
$GPRMC,154618.152,A,5307.7349,N,00522.5518,E,6.11,24.48,260805,,*3B
$GPRMC,154631.151,A,5307.7540,N,00522.5618,E,5.95,19.48,260805,,*3E
$GPRMC,154643.151,A,5307.7704,N,00522.5715,E,4.82,21.32,260805,,*34
$GPRMC,154652.150,A,5307.7828,N,00522.5771,E,5.48,23.72,260805,,*37
$GPRMC,154708.149,A,5307.8050,N,00522.5917,E,6.03,26.37,260805,,*3F
$GPRMC,154721.148,A,5307.8244,N,00522.6030,E,5.32,19.11,260805,,*34
$GPRMC,154733.147,A,5307.8417,N,00522.6132,E,5.47,22.36,260805,,*34
$GPRMC,154746.147,A,5307.8608,N,00522.6232,E,6.03,21.27,260805,,*39
$GPRMC,154758.146,A,5307.8781,N,00522.6350,E,5.54,23.55,260805,,*34
$GPRMC,154810.145,A,5307.8954,N,00522.6429,E,5.54,11.97,260805,,*34
$GPRMC,154823.144,A,5307.9154,N,00522.6492,E,5.53,8.49,260805,,*00
$GPRMC,154836.143,A,5307.9343,N,00522.6571,E,5.41,26.91,260805,,*31
$GPRMC,154848.143,A,5307.9510,N,00522.6658,E,5.43,13.14,260805,,*39
$GPRMC,154900.142,A,5307.9683,N,00522.6749,E,5.01,15.87,260805,,*37
$GPRMC,154913.141,A,5307.9860,N,00522.6890,E,5.07,26.02,260805,,*35
$GPRMC,154924.140,A,5308.0007,N,00522.6963,E,5.11,17.58,260805,,*38
$GPRMC,154937.139,A,5308.0184,N,00522.7084,E,5.73,18.90,260805,,*30
$GPRMC,154949.139,A,5308.0374,N,00522.7162,E,6.14,21.11,260805,,*3C
$GPRMC,155001.138,A,5308.0541,N,00522.7303,E,5.81,25.32,260805,,*36
$GPRMC,155014.137,A,5308.0716,N,00522.7454,E,5.26,24.54,260805,,*34
$GPRMC,155027.136,A,5308.0887,N,00522.7591,E,5.85,22.81,260805,,*3D
$GPRMC,155040.135,A,5308.1066,N,00522.7734,E,5.70,14.36,260805,,*37
$GPRMC,155051.135,A,5308.1210,N,00522.7845,E,5.24,26.16,260805,,*3F
$GPRMC,155104.134,A,5308.1388,N,00522.7975,E,5.49,22.90,260805,,*3C
$GPRMC,155116.133,A,5308.1547,N,00522.8080,E,5.13,16.29,260805,,*3B
$GPRMC,155139.131,A,5308.1896,N,00522.8128,E,6.31,4.35,260805,,*0B
$GPRMC,155153.131,A,5308.2121,N,00522.8169,E,5.74,5.23,260805,,*00
$GPRMC,155206.130,A,5308.2320,N,00522.8214,E,5.23,7.07,260805,,*0E
$GPRMC,155218.129,A,5308.2506,N,00522.8256,E,5.37,358.16,260805,,*01
$GPRMC,155231.128,A,5308.2710,N,00522.8284,E,5.72,358.74,260805,,*04
$GPRMC,155244.127,A,5308.2915,N,00522.8325,E,5.82,15.38,260805,,*35
$GPRMC,155256.127,A,5308.3096,N,00522.8391,E,5.73,7.75,260805,,*0E
$GPRMC,155307.126,A,5308.3269,N,00522.8443,E,6.30,8.79,260805,,*07
$GPRMC,155321.125,A,5308.3490,N,00522.8480,E,6.13,10.97,260805,,*37
$GPRMC,155334.124,A,5308.3689,N,00522.8573,E,5.65,17.81,260805,,*37
$GPRMC,155356.123,A,5308.4018,N,00522.8683,E,5.60,4.07,260805,,*08
$GPRMC,155411.122,A,5308.4238,N,00522.8723,E,5.74,0.17,260805,,*06
$GPRMC,155424.121,A,5308.4436,N,00522.8752,E,5.81,2.17,260805,,*05
$GPRMC,155436.120,A,5308.4624,N,00522.8803,E,6.01,7.10,260805,,*04
$GPRMC,155448.119,A,5308.4809,N,00522.8853,E,5.36,5.99,260805,,*07
$GPRMC,155501.118,A,5308.5007,N,00522.8910,E,5.54,7.83,260805,,*06
$GPRMC,155513.118,A,5308.5189,N,00522.8949,E,5.82,5.40,260805,,*08
$GPRMC,155525.117,A,5308.5378,N,00522.8982,E,5.56,1.72,260805,,*05
$GPRMC,155536.116,A,5308.5548,N,00522.8996,E,5.59,6.53,260805,,*0D
$GPRMC,155550.115,A,5308.5755,N,00522.9058,E,5.79,16.40,260805,,*3B
$GPRMC,155602.114,A,5308.5940,N,00522.9128,E,6.10,11.58,260805,,*30
$GPRMC,155614.114,A,5308.6124,N,00522.9200,E,5.51,17.88,260805,,*3A
$GPRMC,155626.113,A,5308.6300,N,00522.9309,E,5.82,21.18,260805,,*32
$GPRMC,155640.112,A,5308.6506,N,00522.9419,E,6.34,6.66,260805,,*07
$GPRMC,155653.111,A,5308.6707,N,00522.9480,E,5.78,24.51,260805,,*3A
$GPRMC,155705.110,A,5308.6898,N,00522.9536,E,5.24,15.90,260805,,*3A
$GPRMC,155718.110,A,5308.7093,N,00522.9604,E,5.56,6.69,260805,,*07
$GPRMC,155731.109,A,5308.7293,N,00522.9657,E,5.93,5.58,260805,,*08
$GPRMC,155737.108,A,5308.7383,N,00522.9685,E,6.04,21.17,260805,,*30
$GPRMC,155816.106,A,5308.7949,N,00522.9994,E,5.76,21.11,260805,,*31
$GPRMC,160332.085,A,5309.2848,N,00523.1593,E,5.93,12.16,260805,,*3A
$GPRMC,160345.084,A,5309.3062,N,00523.1671,E,6.07,16.50,260805,,*3D
$GPRMC,160356.084,A,5309.3235,N,00523.1729,E,5.64,17.73,260805,,*35
$GPRMC,160409.083,A,5309.3422,N,00523.1834,E,6.42,23.82,260805,,*32
$GPRMC,160420.082,A,5309.3582,N,00523.1917,E,5.75,11.00,260805,,*3F
$GPRMC,160433.081,A,5309.3781,N,00523.1994,E,5.89,16.72,260805,,*35
$GPRMC,160446.080,A,5309.3982,N,00523.2069,E,5.84,7.13,260805,,*09
$GPRMC,160459.080,A,5309.4179,N,00523.2168,E,5.64,11.06,260805,,*31
$GPRMC,160511.079,A,5309.4356,N,00523.2246,E,5.66,7.07,260805,,*0E
$GPRMC,160523.078,A,5309.4537,N,00523.2312,E,5.74,14.85,260805,,*34
$GPRMC,160524.078,A,5309.4551,N,00523.2319,E,5.63,13.45,260805,,*35
$GPRMC,160553.076,A,5309.4965,N,00523.2534,E,5.17,10.20,260805,,*3A
$GPRMC,160605.075,A,5309.5143,N,00523.2570,E,5.14,11.29,260805,,*3F
$GPRMC,160618.075,A,5309.5340,N,00523.2615,E,5.52,12.28,260805,,*32
$GPRMC,160630.074,A,5309.5522,N,00523.2664,E,5.93,13.16,260805,,*3C
$GPRMC,160641.073,A,5309.5692,N,00523.2710,E,6.05,12.04,260805,,*39
$GPRMC,160654.072,A,5309.5902,N,00523.2745,E,5.64,354.14,260805,,*0E
$GPRMC,160703.072,A,5309.6043,N,00523.2748,E,6.04,10.02,260805,,*3E
$GPRMC,160720.071,A,5309.6303,N,00523.2822,E,5.48,4.85,260805,,*09
$GPRMC,160733.070,A,5309.6499,N,00523.2864,E,6.00,2.53,260805,,*0E
$GPRMC,160742.069,A,5309.6628,N,00523.2910,E,5.40,23.77,260805,,*38
$GPRMC,160758.068,A,5309.6867,N,00523.2989,E,5.98,9.26,260805,,*0E
$GPRMC,160810.067,A,5309.7044,N,00523.3038,E,6.17,12.27,260805,,*37
$GPRMC,160823.066,A,5309.7241,N,00523.3072,E,5.31,5.97,260805,,*05
$GPRMC,160829.066,A,5309.7335,N,00523.3079,E,5.52,1.66,260805,,*09
$GPRMC,160848.065,A,5309.7642,N,00523.3112,E,6.18,357.57,260805,,*0B
$GPRMC,160901.064,A,5309.7846,N,00523.3124,E,5.93,9.28,260805,,*09
$GPRMC,160914.063,A,5309.8045,N,00523.3162,E,5.83,9.61,260805,,*00
$GPRMC,160926.062,A,5309.8223,N,00523.3212,E,6.12,359.12,260805,,*0F
$GPRMC,160939.062,A,5309.8426,N,00523.3266,E,6.05,9.17,260805,,*04
$GPRMC,160951.061,A,5309.8588,N,00523.3344,E,5.22,33.31,260805,,*36
$GPRMC,161004.060,A,5309.8767,N,00523.3451,E,5.56,23.74,260805,,*3C
$GPRMC,161016.059,A,5309.8937,N,00523.3561,E,5.53,10.10,260805,,*3B
$GPRMC,161026.058,A,5309.9087,N,00523.3637,E,5.42,24.13,260805,,*3E
$GPRMC,161038.058,A,5309.9243,N,00523.3783,E,5.56,21.72,260805,,*32
$GPRMC,161051.057,A,5309.9424,N,00523.3896,E,5.29,18.81,260805,,*30
$GPRMC,161104.056,A,5309.9596,N,00523.4027,E,5.34,28.13,260805,,*39
$GPRMC,161116.055,A,5309.9774,N,00523.4136,E,5.72,22.43,260805,,*3B
$GPRMC,161130.054,A,5309.9969,N,00523.4232,E,5.83,34.87,260805,,*3A
$GPRMC,161142.054,A,5310.0126,N,00523.4392,E,5.72,25.69,260805,,*38
$GPRMC,161155.053,A,5310.0284,N,00523.4547,E,4.90,32.85,260805,,*35
$GPRMC,161207.052,A,5310.0443,N,00523.4677,E,5.57,24.06,260805,,*3B
$GPRMC,161219.051,A,5310.0591,N,00523.4847,E,6.12,33.51,260805,,*32
$GPRMC,161229.051,A,5310.0719,N,00523.4988,E,5.47,32.92,260805,,*3C
$GPRMC,161241.050,A,5310.0877,N,00523.5138,E,5.73,23.47,260805,,*39
$GPRMC,161256.049,A,5310.1067,N,00523.5341,E,5.62,27.32,260805,,*35
$GPRMC,161309.048,A,5310.1233,N,00523.5515,E,6.17,37.25,260805,,*3D
$GPRMC,161321.047,A,5310.1383,N,00523.5678,E,5.87,32.96,260805,,*3D
$GPRMC,161334.046,A,5310.1562,N,00523.5840,E,5.90,34.84,260805,,*37
$GPRMC,161346.046,A,5310.1716,N,00523.5987,E,5.35,39.58,260805,,*3A
$GPRMC,161358.045,A,5310.1871,N,00523.6172,E,5.52,26.09,260805,,*32
$GPRMC,161411.044,A,5310.2044,N,00523.6331,E,5.53,24.04,260805,,*3F
$GPRMC,161422.043,A,5310.2185,N,00523.6452,E,5.47,24.37,260805,,*33
$GPRMC,161436.042,A,5310.2378,N,00523.6571,E,5.45,27.17,260805,,*34
$GPRMC,161446.042,A,5310.2499,N,00523.6673,E,5.34,25.79,260805,,*36
$GPRMC,161458.041,A,5310.2655,N,00523.6775,E,5.10,15.18,260805,,*3D
$GPRMC,161512.040,A,5310.2838,N,00523.6873,E,5.86,33.26,260805,,*39
$GPRMC,161525.039,A,5310.3003,N,00523.6978,E,4.88,59.67,260805,,*3E
$GPRMC,161538.038,A,5310.3160,N,00523.7160,E,6.39,20.31,260805,,*32
$GPRMC,161550.038,A,5310.3333,N,00523.7224,E,4.62,9.13,260805,,*0C
$GPRMC,161603.037,A,5310.3502,N,00523.7372,E,4.70,14.48,260805,,*31
$GPRMC,161615.036,A,5310.3677,N,00523.7461,E,6.33,8.90,260805,,*0E
$GPRMC,161628.035,A,5310.3856,N,00523.7560,E,4.94,18.52,260805,,*3E
$GPRMC,161641.034,A,5310.4038,N,00523.7631,E,5.51,23.65,260805,,*34
$GPRMC,161651.034,A,5310.4184,N,00523.7701,E,6.19,20.78,260805,,*31
$GPRMC,161706.033,A,5310.4395,N,00523.7824,E,5.45,17.57,260805,,*3C
$GPRMC,161715.032,A,5310.4524,N,00523.7863,E,5.82,18.31,260805,,*34
$GPRMC,161726.031,A,5310.4660,N,00523.7996,E,4.22,51.77,260805,,*3B
$GPRMC,161736.031,A,5310.4730,N,00523.8197,E,4.77,50.09,260805,,*30
$GPRMC,161755.029,A,5310.4878,N,00523.8492,E,4.50,50.39,260805,,*39
$GPRMC,161809.029,A,5310.5025,N,00523.8620,E,4.72,18.75,260805,,*31
$GPRMC,161818.028,A,5310.5128,N,00523.8676,E,4.32,23.23,260805,,*30
$GPRMC,161827.027,A,5310.5231,N,00523.8770,E,4.93,19.16,260805,,*3B
$GPRMC,161843.026,A,5310.5425,N,00523.8935,E,4.88,44.69,260805,,*3E
$GPRMC,161901.025,A,5310.5599,N,00523.9257,E,6.40,34.27,260805,,*39
$GPRMC,161915.024,A,5310.5768,N,00523.9441,E,6.17,31.21,260805,,*31
$GPRMC,161927.024,A,5310.5891,N,00523.9627,E,4.66,45.91,260805,,*37
$GPRMC,161940.023,A,5310.5946,N,00523.9877,E,4.85,77.43,260805,,*32
$GPRMC,161953.022,A,5310.6011,N,00524.0101,E,4.73,59.55,260805,,*3D
$GPRMC,162005.021,A,5310.6068,N,00524.0293,E,4.60,63.22,260805,,*3A
$GPRMC,162015.020,A,5310.6119,N,00524.0466,E,3.87,70.69,260805,,*32
$GPRMC,162029.019,A,5310.6186,N,00524.0723,E,3.65,81.38,260805,,*35
$GPRMC,162042.019,A,5310.6141,N,00524.0971,E,5.62,135.73,260805,,*0A
$GPRMC,162054.018,A,5310.6028,N,00524.1206,E,4.74,110.68,260805,,*03
$GPRMC,162119.016,A,5310.5814,N,00524.1748,E,5.83,134.58,260805,,*02
$GPRMC,162131.015,A,5310.5697,N,00524.1977,E,5.09,120.26,260805,,*02
$GPRMC,162143.015,A,5310.5594,N,00524.2226,E,5.34,127.94,260805,,*0B
$GPRMC,162208.013,A,5310.5334,N,00524.2642,E,4.79,134.68,260805,,*02
$GPRMC,162220.012,A,5310.5223,N,00524.2827,E,4.63,128.85,260805,,*06
$GPRMC,162309.009,A,5310.4825,N,00524.3116,E,1.84,239.88,260805,,*03
$GPRMC,162321.008,A,5310.4802,N,00524.3057,E,0.97,213.85,260805,,*0F
$GPRMC,162333.008,A,5310.4778,N,00524.3036,E,1.01,200.17,260805,,*0E
$GPRMC,162346.007,A,5310.4721,N,00524.3034,E,1.44,198.09,260805,,*01
$GPRMC,162356.006,A,5310.4689,N,00524.2985,E,1.25,230.33,260805,,*0F
$GPRMC,162410.005,A,5310.4678,N,00524.2920,E,0.63,269.66,260805,,*07
$GPRMC,162423.004,A,5310.4688,N,00524.2889,E,0.44,328.82,260805,,*00
$GPRMC,162435.004,A,5310.4703,N,00524.2881,E,0.53,31.16,260805,,*3D
$GPRMC,162448.003,A,5310.4714,N,00524.2894,E,0.76,28.60,260805,,*3C
$GPRMC,162500.002,A,5310.4736,N,00524.2927,E,1.03,24.44,260805,,*30
$GPRMC,162511.001,A,5310.4769,N,00524.2930,E,1.19,17.22,260805,,*34
$GPRMC,162524.000,A,5310.4809,N,00524.2940,E,0.91,4.33,260805,,*0E
$GPRMC,162536.000,A,5310.4840,N,00524.2958,E,0.94,12.98,260805,,*3A
$GPRMC,162548.999,A,5310.4873,N,00524.2963,E,1.05,21.51,260805,,*3E
$GPRMC,162600.998,A,5310.4909,N,00524.2985,E,1.25,15.87,260805,,*3A
$GPRMC,162613.997,A,5310.4961,N,00524.3002,E,1.72,18.21,260805,,*3D
$GPRMC,162625.996,A,5310.5019,N,00524.3019,E,1.88,0.25,260805,,*0C
$GPRMC,162637.996,A,5310.5088,N,00524.3020,E,2.74,8.57,260805,,*00
$GPRMC,162650.995,A,5310.5204,N,00524.3035,E,3.74,11.24,260805,,*3D
$GPRMC,162702.994,A,5310.5334,N,00524.3077,E,3.79,341.33,260805,,*03
$GPRMC,162715.993,A,5310.5466,N,00524.3013,E,3.88,341.47,260805,,*0D
$GPRMC,162727.992,A,5310.5584,N,00524.2930,E,3.59,340.58,260805,,*0A
$GPRMC,162740.992,A,5310.5689,N,00524.2880,E,3.24,354.27,260805,,*08
$GPRMC,162752.991,A,5310.5796,N,00524.2837,E,3.59,341.67,260805,,*01
$GPRMC,162804.990,A,5310.5892,N,00524.2755,E,3.44,335.59,260805,,*0E
$GPRMC,162817.989,A,5310.6011,N,00524.2662,E,3.85,338.73,260805,,*09
$GPRMC,162830.988,A,5310.6146,N,00524.2589,E,3.87,350.64,260805,,*02
$GPRMC,162842.988,A,5310.6262,N,00524.2527,E,3.51,349.81,260805,,*0E
$GPRMC,162854.987,A,5310.6375,N,00524.2469,E,3.82,336.83,260805,,*0E
$GPRMC,162907.986,A,5310.6512,N,00524.2380,E,4.29,331.81,260805,,*0C
$GPRMC,162919.985,A,5310.6635,N,00524.2285,E,3.78,353.90,260805,,*05
$GPRMC,162930.984,A,5310.6748,N,00524.2240,E,3.86,348.57,260805,,*0D
$GPRMC,162943.984,A,5310.6894,N,00524.2178,E,4.76,353.52,260805,,*08
$GPRMC,162955.983,A,5310.7050,N,00524.2156,E,5.28,6.17,260805,,*0D
$GPRMC,163008.982,A,5310.7226,N,00524.2132,E,4.65,10.67,260805,,*35
$GPRMC,163020.981,A,5310.7378,N,00524.2150,E,4.75,7.44,260805,,*04
$GPRMC,163032.980,A,5310.7534,N,00524.2153,E,5.18,1.15,260805,,*03
$GPRMC,163044.980,A,5310.7681,N,00524.2176,E,4.90,3.89,260805,,*0E
$GPRMC,163055.979,A,5310.7831,N,00524.2206,E,4.57,2.84,260805,,*0E
$GPRMC,163109.978,A,5310.7991,N,00524.2257,E,4.68,8.16,260805,,*05
$GPRMC,163122.977,A,5310.8144,N,00524.2300,E,3.96,22.41,260805,,*33
$GPRMC,163134.976,A,5310.8281,N,00524.2375,E,4.94,17.61,260805,,*3C
$GPRMC,163147.976,A,5310.8429,N,00524.2428,E,4.21,14.41,260805,,*3C
$GPRMC,163158.975,A,5310.8555,N,00524.2513,E,4.52,27.90,260805,,*3A
$GPRMC,163211.974,A,5310.8700,N,00524.2602,E,3.96,21.25,260805,,*33
$GPRMC,163224.973,A,5310.8834,N,00524.2674,E,4.28,14.79,260805,,*36
$GPRMC,163235.972,A,5310.8944,N,00524.2740,E,3.62,28.49,260805,,*32
$GPRMC,163248.972,A,5310.9076,N,00524.2796,E,4.25,14.67,260805,,*3D
$GPRMC,163300.971,A,5310.9201,N,00524.2853,E,4.09,10.98,260805,,*3D
$GPRMC,163310.970,A,5310.9323,N,00524.2865,E,4.26,7.18,260805,,*0A
$GPRMC,163318.970,A,5310.9413,N,00524.2902,E,4.05,15.71,260805,,*3B
$GPRMC,163340.968,A,5310.9665,N,00524.3009,E,4.66,12.78,260805,,*34
$GPRMC,163352.968,A,5310.9807,N,00524.3078,E,5.09,16.90,260805,,*31
$GPRMC,163405.967,A,5310.9956,N,00524.3141,E,4.70,9.32,260805,,*0C
$GPRMC,163418.966,A,5311.0098,N,00524.3240,E,3.33,18.40,260805,,*35
$GPRMC,163429.965,A,5311.0229,N,00524.3300,E,4.12,18.42,260805,,*3F
$GPRMC,163441.964,A,5311.0350,N,00524.3379,E,3.50,17.51,260805,,*3D
$GPRMC,163456.963,A,5311.0500,N,00524.3484,E,3.81,35.28,260805,,*38
$GPRMC,163506.963,A,5311.0589,N,00524.3591,E,3.91,49.62,260805,,*3C
$GPRMC,163523.962,A,5311.0738,N,00524.3672,E,4.45,7.63,260805,,*09
$GPRMC,163535.961,A,5311.0855,N,00524.3715,E,3.56,21.65,260805,,*3E
$GPRMC,163546.960,A,5311.0977,N,00524.3766,E,5.04,15.48,260805,,*37
$GPRMC,163559.959,A,5311.1116,N,00524.3845,E,3.79,18.91,260805,,*36
$GPRMC,163610.959,A,5311.1225,N,00524.3913,E,4.28,24.34,260805,,*3A
$GPRMC,163617.958,A,5311.1303,N,00524.3953,E,4.76,5.45,260805,,*03
$GPRMC,163630.957,A,5311.1444,N,00524.3975,E,4.23,15.82,260805,,*33
$GPRMC,163652.956,A,5311.1704,N,00524.4054,E,4.81,4.54,260805,,*0F
$GPRMC,163705.955,A,5311.1861,N,00524.4119,E,5.52,2.29,260805,,*08
$GPRMC,163717.954,A,5311.2010,N,00524.4157,E,5.31,24.50,260805,,*32
$GPRMC,163729.953,A,5311.2164,N,00524.4203,E,4.69,354.77,260805,,*05
$GPRMC,163742.953,A,5311.2271,N,00524.4038,E,4.05,287.42,260805,,*06
$GPRMC,163754.952,A,5311.2255,N,00524.3836,E,4.32,240.12,260805,,*0D
$GPRMC,163807.951,A,5311.2103,N,00524.3615,E,5.62,203.53,260805,,*0E
$GPRMC,163816.950,A,5311.1965,N,00524.3545,E,5.35,203.36,260805,,*03
$GPRMC,163832.949,A,5311.1782,N,00524.3388,E,4.14,224.08,260805,,*07
$GPRMC,163854.948,A,5311.1617,N,00524.3039,E,4.07,232.10,260805,,*0E
$GPRMC,163934.945,A,5311.1367,N,00524.3342,E,5.06,79.88,260805,,*35
$GPRMC,163945.945,A,5311.1405,N,00524.3598,E,5.08,72.91,260805,,*3C
$GPRMC,163958.944,A,5311.1449,N,00524.3862,E,4.42,69.12,260805,,*3F
$GPRMC,164010.943,A,5311.1493,N,00524.4097,E,4.85,79.85,260805,,*3C
$GPRMC,164023.942,A,5311.1477,N,00524.4345,E,4.76,119.39,260805,,*07
