$GPRMC,133619.000,A,5222.6264,N,00455.3538,E,0.00,,200907,,,A*7B
$GPRMC,133619.000,A,5222.6264,N,00455.3538,E,0.00,,200907,,,A*7B
$GPRMC,133624.000,A,5222.6258,N,00455.3584,E,2.44,104.06,200907,,,A*62
$GPRMC,133624.000,A,5222.6258,N,00455.3584,E,2.44,104.06,200907,,,A*62
$GPRMC,133634.000,A,5222.6228,N,00455.3695,E,2.57,109.05,200907,,,A*6B
$GPRMC,133634.000,A,5222.6228,N,00455.3695,E,2.57,109.05,200907,,,A*6B
$GPRMC,133644.000,A,5222.6194,N,00455.3777,E,2.40,108.01,200907,,,A*66
$GPRMC,133644.000,A,5222.6194,N,00455.3777,E,2.40,108.01,200907,,,A*66
$GPRMC,133654.000,A,5222.6165,N,00455.3865,E,2.41,103.68,200907,,,A*60
$GPRMC,133654.000,A,5222.6165,N,00455.3865,E,2.41,103.68,200907,,,A*60
$GPRMC,133704.000,A,5222.6139,N,00455.3970,E,2.45,97.32,200907,,,A*5F
$GPRMC,133704.000,A,5222.6139,N,00455.3970,E,2.45,97.32,200907,,,A*5F
$GPRMC,133714.000,A,5222.6112,N,00455.4071,E,2.70,111.06,200907,,,A*66
$GPRMC,133714.000,A,5222.6112,N,00455.4071,E,2.70,111.06,200907,,,A*66
$GPRMC,133724.000,A,5222.6083,N,00455.4174,E,2.89,110.87,200907,,,A*66
$GPRMC,133724.000,A,5222.6083,N,00455.4174,E,2.89,110.87,200907,,,A*66
$GPRMC,133734.000,A,5222.6057,N,00455.4270,E,2.37,108.95,200907,,,A*66
$GPRMC,133734.000,A,5222.6057,N,00455.4270,E,2.37,108.95,200907,,,A*66
$GPRMC,133745.000,A,5222.6051,N,00455.4286,E,0.00,111.26,200907,,,A*69
$GPRMC,133745.000,A,5222.6051,N,00455.4286,E,0.00,111.26,200907,,,A*69
$GPRMC,133754.000,A,5222.6051,N,00455.4277,E,0.00,111.26,200907,,,A*67
$GPRMC,133754.000,A,5222.6051,N,00455.4277,E,0.00,111.26,200907,,,A*67
$GPRMC,133804.000,A,5222.6052,N,00455.4266,E,0.00,111.26,200907,,,A*6E
$GPRMC,133804.000,A,5222.6052,N,00455.4266,E,0.00,111.26,200907,,,A*6E
$GPRMC,133814.000,A,5222.6059,N,00455.4317,E,0.00,111.26,200907,,,A*63
$GPRMC,133814.000,A,5222.6059,N,00455.4317,E,0.00,111.26,200907,,,A*63
$GPRMC,133823.000,A,5222.6052,N,00455.4416,E,0.00,101.28,200907,,,A*65
$GPRMC,133823.000,A,5222.6052,N,00455.4416,E,0.00,101.28,200907,,,A*65
$GPRMC,133833.000,A,5222.6053,N,00455.4418,E,0.00,101.28,200907,,,A*6B
$GPRMC,133833.000,A,5222.6053,N,00455.4418,E,0.00,101.28,200907,,,A*6B
$GPRMC,133844.000,A,5222.6060,N,00455.4415,E,0.00,101.28,200907,,,A*66
$GPRMC,133844.000,A,5222.6060,N,00455.4415,E,0.00,101.28,200907,,,A*66
$GPRMC,133854.000,A,5222.6048,N,00455.4438,E,1.89,105.73,200907,,,A*68
$GPRMC,133854.000,A,5222.6048,N,00455.4438,E,1.89,105.73,200907,,,A*68
$GPRMC,133904.000,A,5222.6014,N,00455.4519,E,2.33,102.70,200907,,,A*61
$GPRMC,133904.000,A,5222.6014,N,00455.4519,E,2.33,102.70,200907,,,A*61
$GPRMC,133914.000,A,5222.5999,N,00455.4612,E,3.01,109.87,200907,,,A*64
$GPRMC,133914.000,A,5222.5999,N,00455.4612,E,3.01,109.87,200907,,,A*64
$GPRMC,133924.000,A,5222.5951,N,00455.4727,E,3.23,124.45,200907,,,A*65
$GPRMC,133924.000,A,5222.5951,N,00455.4727,E,3.23,124.45,200907,,,A*65
$GPRMC,133933.000,A,5222.5931,N,00455.4850,E,2.75,81.26,200907,,,A*53
$GPRMC,133933.000,A,5222.5931,N,00455.4850,E,2.75,81.26,200907,,,A*53
$GPRMC,133942.000,A,5222.5896,N,00455.4919,E,2.93,106.60,200907,,,A*61
$GPRMC,133942.000,A,5222.5896,N,00455.4919,E,2.93,106.60,200907,,,A*61
$GPRMC,133954.000,A,5222.5898,N,00455.5126,E,2.64,96.91,200907,,,A*53
$GPRMC,133954.000,A,5222.5898,N,00455.5126,E,2.64,96.91,200907,,,A*53
$GPRMC,134004.000,A,5222.5866,N,00455.5284,E,3.24,113.95,200907,,,A*6F
$GPRMC,134004.000,A,5222.5866,N,00455.5284,E,3.24,113.95,200907,,,A*6F
$GPRMC,134014.000,A,5222.5818,N,00455.5397,E,2.89,113.72,200907,,,A*6B
$GPRMC,134014.000,A,5222.5818,N,00455.5397,E,2.89,113.72,200907,,,A*6B
$GPRMC,134023.000,A,5222.5770,N,00455.5491,E,3.15,126.31,200907,,,A*6A
$GPRMC,134023.000,A,5222.5770,N,00455.5491,E,3.15,126.31,200907,,,A*6A
$GPRMC,134034.000,A,5222.5743,N,00455.5610,E,0.00,109.98,200907,,,A*6E
$GPRMC,134034.000,A,5222.5743,N,00455.5610,E,0.00,109.98,200907,,,A*6E
$GPRMC,134044.000,A,5222.5701,N,00455.5698,E,2.30,101.49,200907,,,A*6A
$GPRMC,134044.000,A,5222.5701,N,00455.5698,E,2.30,101.49,200907,,,A*6A
$GPRMC,134055.000,A,5222.5717,N,00455.5858,E,2.60,116.24,200907,,,A*67
$GPRMC,134055.000,A,5222.5717,N,00455.5858,E,2.60,116.24,200907,,,A*67
$GPRMC,134104.000,A,5222.5715,N,00455.5998,E,2.50,100.80,200907,,,A*67
$GPRMC,134104.000,A,5222.5715,N,00455.5998,E,2.50,100.80,200907,,,A*67
$GPRMC,134115.000,A,5222.5713,N,00455.6022,E,0.00,110.74,200907,,,A*67
$GPRMC,134115.000,A,5222.5713,N,00455.6022,E,0.00,110.74,200907,,,A*67
$GPRMC,134124.000,A,5222.5696,N,00455.6080,E,2.75,112.74,200907,,,A*63
$GPRMC,134124.000,A,5222.5696,N,00455.6080,E,2.75,112.74,200907,,,A*63
$GPRMC,134134.000,A,5222.5655,N,00455.6149,E,2.69,111.69,200907,,,A*6B
$GPRMC,134134.000,A,5222.5655,N,00455.6149,E,2.69,111.69,200907,,,A*6B
$GPRMC,134144.000,A,5222.5573,N,00455.6083,E,2.46,115.58,200907,,,A*67
$GPRMC,134144.000,A,5222.5573,N,00455.6083,E,2.46,115.58,200907,,,A*67
$GPRMC,134154.000,A,5222.5570,N,00455.6186,E,0.00,132.90,200907,,,A*60
$GPRMC,134154.000,A,5222.5570,N,00455.6186,E,0.00,132.90,200907,,,A*60
$GPRMC,134204.000,A,5222.5613,N,00455.6218,E,0.00,22.21,200907,,,A*5E
$GPRMC,134204.000,A,5222.5613,N,00455.6218,E,0.00,22.21,200907,,,A*5E
$GPRMC,134213.000,A,5222.5620,N,00455.6221,E,0.00,22.21,200907,,,A*52
$GPRMC,134213.000,A,5222.5620,N,00455.6221,E,0.00,22.21,200907,,,A*52
$GPRMC,134223.000,A,5222.5727,N,00455.6270,E,3.16,67.03,200907,,,A*56
$GPRMC,134223.000,A,5222.5727,N,00455.6270,E,3.16,67.03,200907,,,A*56
$GPRMC,134234.000,A,5222.5514,N,00455.5945,E,1.94,215.62,200907,,,A*64
$GPRMC,134234.000,A,5222.5514,N,00455.5945,E,1.94,215.62,200907,,,A*64
$GPRMC,134244.000,A,5222.5455,N,00455.5894,E,0.00,211.78,200907,,,A*69
$GPRMC,134244.000,A,5222.5455,N,00455.5894,E,0.00,211.78,200907,,,A*69
$GPRMC,134254.000,A,5222.5475,N,00455.5863,E,0.00,211.78,200907,,,A*62
$GPRMC,134254.000,A,5222.5475,N,00455.5863,E,0.00,211.78,200907,,,A*62
$GPRMC,134304.000,A,5222.5462,N,00455.5817,E,0.00,286.26,200907,,,A*66
$GPRMC,134304.000,A,5222.5462,N,00455.5817,E,0.00,286.26,200907,,,A*66
$GPRMC,134312.000,A,5222.5439,N,00455.5848,E,0.00,330.73,200907,,,A*69
$GPRMC,134312.000,A,5222.5439,N,00455.5848,E,0.00,330.73,200907,,,A*69
$GPRMC,134323.000,A,5222.5470,N,00455.5702,E,2.44,284.64,200907,,,A*6D
$GPRMC,134323.000,A,5222.5470,N,00455.5702,E,2.44,284.64,200907,,,A*6D
$GPRMC,134332.000,A,5222.5429,N,00455.5591,E,0.00,268.65,200907,,,A*68
$GPRMC,134332.000,A,5222.5429,N,00455.5591,E,0.00,268.65,200907,,,A*68
$GPRMC,134343.000,A,5222.5366,N,00455.5454,E,0.00,268.65,200907,,,A*6A
$GPRMC,134343.000,A,5222.5366,N,00455.5454,E,0.00,268.65,200907,,,A*6A
$GPRMC,134354.000,A,5222.5363,N,00455.5289,E,2.08,251.21,200907,,,A*6F
$GPRMC,134354.000,A,5222.5363,N,00455.5289,E,2.08,251.21,200907,,,A*6F
$GPRMC,134406.000,A,5222.5410,N,00455.5030,E,0.00,291.72,200907,,,A*6C
$GPRMC,134406.000,A,5222.5410,N,00455.5030,E,0.00,291.72,200907,,,A*6C
$GPRMC,134414.000,A,5222.5405,N,00455.4943,E,0.00,247.90,200907,,,A*60
$GPRMC,134414.000,A,5222.5405,N,00455.4943,E,0.00,247.90,200907,,,A*60
$GPRMC,134423.000,A,5222.5450,N,00455.4958,E,0.00,247.90,200907,,,A*6E
$GPRMC,134423.000,A,5222.5450,N,00455.4958,E,0.00,247.90,200907,,,A*6E
$GPRMC,134435.000,A,5222.5477,N,00455.4970,E,0.00,247.90,200907,,,A*66
$GPRMC,134435.000,A,5222.5477,N,00455.4970,E,0.00,247.90,200907,,,A*66
$GPRMC,134444.000,A,5222.5462,N,00455.4916,E,0.00,318.84,200907,,,A*6A
$GPRMC,134444.000,A,5222.5462,N,00455.4916,E,0.00,318.84,200907,,,A*6A
$GPRMC,134454.000,A,5222.5497,N,00455.4805,E,0.00,318.84,200907,,,A*62
$GPRMC,134454.000,A,5222.5497,N,00455.4805,E,0.00,318.84,200907,,,A*62
$GPRMC,134504.000,A,5222.5496,N,00455.4589,E,0.00,318.84,200907,,,A*6E
$GPRMC,134504.000,A,5222.5496,N,00455.4589,E,0.00,318.84,200907,,,A*6E
$GPRMC,134513.000,A,5222.5539,N,00455.4410,E,0.00,225.51,200907,,,A*6A
$GPRMC,134513.000,A,5222.5539,N,00455.4410,E,0.00,225.51,200907,,,A*6A
$GPRMC,134524.000,A,5222.5578,N,00455.4215,E,2.70,311.03,200907,,,A*6C
$GPRMC,134524.000,A,5222.5578,N,00455.4215,E,2.70,311.03,200907,,,A*6C
$GPRMC,134534.000,A,5222.5702,N,00455.3935,E,3.24,290.67,200907,,,A*66
$GPRMC,134534.000,A,5222.5702,N,00455.3935,E,3.24,290.67,200907,,,A*66
$GPRMC,134544.000,A,5222.5747,N,00455.3809,E,2.25,314.78,200907,,,A*6D
$GPRMC,134544.000,A,5222.5747,N,00455.3809,E,2.25,314.78,200907,,,A*6D
$GPRMC,134554.000,A,5222.5846,N,00455.3666,E,1.93,317.44,200907,,,A*67
$GPRMC,134554.000,A,5222.5846,N,00455.3666,E,1.93,317.44,200907,,,A*67
$GPRMC,134604.000,A,5222.5911,N,00455.3629,E,2.32,311.25,200907,,,A*60
$GPRMC,134604.000,A,5222.5911,N,00455.3629,E,2.32,311.25,200907,,,A*60
$GPRMC,134615.000,A,5222.5910,N,00455.3559,E,1.99,298.74,200907,,,A*63
$GPRMC,134615.000,A,5222.5910,N,00455.3559,E,1.99,298.74,200907,,,A*63
$GPRMC,134624.000,A,5222.5898,N,00455.3476,E,1.95,292.99,200907,,,A*69
$GPRMC,134624.000,A,5222.5898,N,00455.3476,E,1.95,292.99,200907,,,A*69
$GPRMC,134634.000,A,5222.5906,N,00455.3362,E,2.06,311.98,200907,,,A*6E
$GPRMC,134634.000,A,5222.5906,N,00455.3362,E,2.06,311.98,200907,,,A*6E
$GPRMC,134644.000,A,5222.5913,N,00455.3249,E,0.00,314.41,200907,,,A*60
$GPRMC,134644.000,A,5222.5913,N,00455.3249,E,0.00,314.41,200907,,,A*60
$GPRMC,134654.000,A,5222.5909,N,00455.3232,E,0.00,314.41,200907,,,A*66
$GPRMC,134654.000,A,5222.5909,N,00455.3232,E,0.00,314.41,200907,,,A*66
$GPRMC,134704.000,A,5222.5881,N,00455.3229,E,0.00,314.41,200907,,,A*69
$GPRMC,134704.000,A,5222.5881,N,00455.3229,E,0.00,314.41,200907,,,A*69
$GPRMC,134714.000,A,5222.5851,N,00455.3261,E,0.00,314.41,200907,,,A*69
$GPRMC,134714.000,A,5222.5851,N,00455.3261,E,0.00,314.41,200907,,,A*69
$GPRMC,134724.000,A,5222.5865,N,00455.3277,E,0.00,314.41,200907,,,A*6A
$GPRMC,134724.000,A,5222.5865,N,00455.3277,E,0.00,314.41,200907,,,A*6A
$GPRMC,134733.000,A,5222.5872,N,00455.3269,E,0.00,314.41,200907,,,A*65
$GPRMC,134733.000,A,5222.5872,N,00455.3269,E,0.00,314.41,200907,,,A*65
$GPRMC,134744.000,A,5222.5848,N,00455.3301,E,0.00,314.41,200907,,,A*63
$GPRMC,134744.000,A,5222.5848,N,00455.3301,E,0.00,314.41,200907,,,A*63
$GPRMC,134754.000,A,5222.5805,N,00455.3336,E,0.00,314.41,200907,,,A*6F
$GPRMC,134754.000,A,5222.5805,N,00455.3336,E,0.00,314.41,200907,,,A*6F
$GPRMC,134804.000,A,5222.5826,N,00455.3314,E,0.00,314.41,200907,,,A*64
$GPRMC,134804.000,A,5222.5826,N,00455.3314,E,0.00,314.41,200907,,,A*64
