$GPGGA,123457.000,5157.4317,N,00535.6561,E,1,05,2.2,84.0,M,,,,0000*30
$GPRMC,123457.000,A,5157.4317,N,00535.6561,E,0.00,296.60,290407,,*06
$GPGGA,123458.000,5157.4317,N,00535.6561,E,1,05,2.2,84.0,M,,,,0000*3F
$GPRMC,123458.000,A,5157.4317,N,00535.6561,E,0.00,296.60,290407,,*09
$GPGGA,123459.000,5157.4317,N,00535.6561,E,1,05,2.2,84.0,M,,,,0000*3E
$GPRMC,123459.000,A,5157.4317,N,00535.6561,E,0.00,296.60,290407,,*08
$GPGGA,123500.000,5157.4317,N,00535.6561,E,1,06,1.5,84.0,M,,,,0000*34
$GPRMC,123500.000,A,5157.4317,N,00535.6561,E,0.00,296.60,290407,,*05
$GPGGA,123501.000,5157.4406,N,00535.6342,E,1,06,1.5,90.8,M,,,,0000*38
$GPRMC,123501.000,A,5157.4406,N,00535.6342,E,2.90,339.57,290407,,*0F
$GPGGA,123502.000,5157.4412,N,00535.6342,E,1,06,1.5,88.2,M,,,,0000*3D
$GPRMC,123502.000,A,5157.4412,N,00535.6342,E,2.17,1.44,290407,,*0C
$GPGGA,123503.000,5157.4419,N,00535.6337,E,1,06,1.5,86.2,M,,,,0000*3B
$GPRMC,123503.000,A,5157.4419,N,00535.6337,E,1.96,6.03,290407,,*0A
$GPGGA,123504.000,5157.4424,N,00535.6341,E,1,06,1.5,86.0,M,,,,0000*31
$GPRMC,123504.000,A,5157.4424,N,00535.6341,E,0.00,6.03,290407,,*0C
$GPGGA,123505.000,5157.4424,N,00535.6341,E,1,06,1.5,86.0,M,,,,0000*30
$GPRMC,123505.000,A,5157.4424,N,00535.6341,E,0.00,6.03,290407,,*0D
$GPGGA,123506.000,5157.4424,N,00535.6341,E,1,06,1.5,86.0,M,,,,0000*33
$GPRMC,123506.000,A,5157.4424,N,00535.6341,E,0.00,6.03,290407,,*0E
$GPGGA,123507.000,5157.4424,N,00535.6341,E,1,06,1.5,86.0,M,,,,0000*32
$GPRMC,123507.000,A,5157.4424,N,00535.6341,E,0.00,6.03,290407,,*0F
$GPGGA,123508.000,5157.4424,N,00535.6341,E,1,06,1.5,86.0,M,,,,0000*3D
$GPRMC,123508.000,A,5157.4424,N,00535.6341,E,0.00,6.03,290407,,*00
$GPGGA,123509.000,5157.4424,N,00535.6341,E,1,06,1.5,86.0,M,,,,0000*3C
$GPRMC,123509.000,A,5157.4424,N,00535.6341,E,0.00,6.03,290407,,*01
$GPGGA,123510.000,5157.4424,N,00535.6341,E,1,06,1.5,86.0,M,,,,0000*34
$GPRMC,123510.000,A,5157.4424,N,00535.6341,E,0.00,6.03,290407,,*09
$GPGGA,123511.000,5157.4424,N,00535.6341,E,1,06,1.5,86.0,M,,,,0000*35
$GPRMC,123511.000,A,5157.4424,N,00535.6341,E,0.00,6.03,290407,,*08
$GPGGA,123512.000,5157.4424,N,00535.6341,E,1,06,1.5,86.0,M,,,,0000*36
$GPRMC,123512.000,A,5157.4424,N,00535.6341,E,0.00,6.03,290407,,*0B
$GPGGA,123513.000,5157.4424,N,00535.6341,E,1,06,1.5,86.0,M,,,,0000*37
$GPRMC,123513.000,A,5157.4424,N,00535.6341,E,0.00,6.03,290407,,*0A
$GPGGA,123514.000,5157.4424,N,00535.6341,E,1,06,1.5,86.0,M,,,,0000*30
$GPRMC,123514.000,A,5157.4424,N,00535.6341,E,0.00,6.03,290407,,*0D
$GPGGA,123515.000,5157.4424,N,00535.6341,E,1,06,1.5,86.0,M,,,,0000*31
$GPRMC,123515.000,A,5157.4424,N,00535.6341,E,0.00,6.03,290407,,*0C
$GPGGA,123516.000,5157.4424,N,00535.6341,E,1,06,1.5,86.0,M,,,,0000*32
$GPRMC,123516.000,A,5157.4424,N,00535.6341,E,0.00,6.03,290407,,*0F
$GPGGA,123517.000,5157.4424,N,00535.6341,E,1,06,1.5,86.0,M,,,,0000*33
$GPRMC,123517.000,A,5157.4424,N,00535.6341,E,0.00,6.03,290407,,*0E
$GPGGA,123518.000,5157.4424,N,00535.6341,E,1,06,1.5,86.0,M,,,,0000*3C
$GPRMC,123518.000,A,5157.4424,N,00535.6341,E,0.00,6.03,290407,,*01
$GPGGA,123519.000,5157.4424,N,00535.6341,E,1,06,1.5,86.0,M,,,,0000*3D
$GPRMC,123519.000,A,5157.4424,N,00535.6341,E,0.00,6.03,290407,,*00
$GPGGA,123520.000,5157.4476,N,00535.6412,E,1,06,1.5,87.1,M,,,,0000*31
$GPRMC,123520.000,A,5157.4476,N,00535.6412,E,3.13,16.79,290407,,*31
$GPGGA,123521.000,5157.4484,N,00535.6432,E,1,06,1.5,86.9,M,,,,0000*36
$GPRMC,123521.000,A,5157.4484,N,00535.6432,E,4.20,26.75,290407,,*37
$GPGGA,123522.000,5157.4500,N,00535.6450,E,1,06,1.5,86.8,M,,,,0000*3D
$GPRMC,123522.000,A,5157.4500,N,00535.6450,E,5.57,31.52,290407,,*3F
$GPGGA,123523.000,5157.4513,N,00535.6468,E,1,06,1.5,87.6,M,,,,0000*3A
$GPRMC,123523.000,A,5157.4513,N,00535.6468,E,5.79,35.50,290407,,*3D
$GPGGA,123524.000,5157.4523,N,00535.6485,E,1,06,1.5,88.2,M,,,,0000*36
$GPRMC,123524.000,A,5157.4523,N,00535.6485,E,4.08,35.87,290407,,*37
$GPGGA,123525.000,5157.4531,N,00535.6491,E,1,06,1.5,88.4,M,,,,0000*37
$GPRMC,123525.000,A,5157.4531,N,00535.6491,E,2.44,31.29,290407,,*3E
$GPGGA,123526.000,5157.4534,N,00535.6500,E,1,06,1.5,88.2,M,,,,0000*3E
$GPRMC,123526.000,A,5157.4534,N,00535.6500,E,1.49,38.29,290407,,*36
$GPGGA,123527.000,5157.4541,N,00535.6502,E,1,06,1.5,89.3,M,,,,0000*3F
$GPRMC,123527.000,A,5157.4541,N,00535.6502,E,1.71,32.47,290407,,*3E
$GPGGA,123528.000,5157.4540,N,00535.6509,E,1,06,1.5,90.7,M,,,,0000*36
$GPRMC,123528.000,A,5157.4540,N,00535.6509,E,0.00,32.47,290407,,*3C
$GPGGA,123529.000,5157.4540,N,00535.6509,E,1,06,1.5,90.7,M,,,,0000*37
$GPRMC,123529.000,A,5157.4540,N,00535.6509,E,0.00,32.47,290407,,*3D
$GPGGA,123530.000,5157.4540,N,00535.6509,E,1,06,1.5,90.7,M,,,,0000*3F
$GPRMC,123530.000,A,5157.4540,N,00535.6509,E,0.00,32.47,290407,,*35
$GPGGA,123531.000,5157.4540,N,00535.6509,E,1,06,1.5,90.7,M,,,,0000*3E
$GPRMC,123531.000,A,5157.4540,N,00535.6509,E,0.00,32.47,290407,,*34
$GPGGA,123532.000,5157.4540,N,00535.6509,E,1,06,1.5,90.7,M,,,,0000*3D
$GPRMC,123532.000,A,5157.4540,N,00535.6509,E,0.00,32.47,290407,,*37
$GPGGA,123533.000,5157.4540,N,00535.6509,E,1,06,1.5,90.7,M,,,,0000*3C
$GPRMC,123533.000,A,5157.4540,N,00535.6509,E,0.00,32.47,290407,,*36
$GPGGA,123534.000,5157.4540,N,00535.6509,E,1,06,1.5,90.7,M,,,,0000*3B
$GPRMC,123534.000,A,5157.4540,N,00535.6509,E,0.00,32.47,290407,,*31
$GPGGA,123535.000,5157.4540,N,00535.6509,E,1,06,1.5,90.7,M,,,,0000*3A
$GPRMC,123535.000,A,5157.4540,N,00535.6509,E,0.00,32.47,290407,,*30
$GPGGA,123536.000,5157.4540,N,00535.6509,E,1,06,1.5,90.7,M,,,,0000*39
$GPRMC,123536.000,A,5157.4540,N,00535.6509,E,0.00,32.47,290407,,*33
$GPGGA,123537.000,5157.4540,N,00535.6509,E,1,06,1.5,90.7,M,,,,0000*38
$GPRMC,123537.000,A,5157.4540,N,00535.6509,E,0.00,32.47,290407,,*32
$GPGGA,123538.000,5157.4540,N,00535.6509,E,1,06,1.5,90.7,M,,,,0000*37
$GPRMC,123538.000,A,5157.4540,N,00535.6509,E,0.00,32.47,290407,,*3D
$GPGGA,123539.000,5157.4540,N,00535.6509,E,1,06,1.5,90.7,M,,,,0000*36
$GPRMC,123539.000,A,5157.4540,N,00535.6509,E,0.00,32.47,290407,,*3C
$GPGGA,123540.000,5157.4540,N,00535.6509,E,1,06,1.5,90.7,M,,,,0000*38
$GPRMC,123540.000,A,5157.4540,N,00535.6509,E,0.00,32.47,290407,,*32
$GPGGA,123541.000,5157.4597,N,00535.6527,E,1,06,1.5,91.9,M,,,,0000*30
$GPRMC,123541.000,A,5157.4597,N,00535.6527,E,2.58,35.06,290407,,*38
$GPGGA,123542.000,5157.4604,N,00535.6537,E,1,06,1.5,91.1,M,,,,0000*33
$GPRMC,123542.000,A,5157.4604,N,00535.6537,E,2.64,26.91,290407,,*30
$GPGGA,123543.000,5157.4613,N,00535.6543,E,1,06,1.5,90.8,M,,,,0000*3F
$GPRMC,123543.000,A,5157.4613,N,00535.6543,E,2.66,20.54,290407,,*39
$GPGGA,123544.000,5157.4621,N,00535.6551,E,1,06,1.5,90.7,M,,,,0000*35
$GPRMC,123544.000,A,5157.4621,N,00535.6551,E,1.70,22.99,290407,,*3B
$GPGGA,123545.000,5157.4625,N,00535.6566,E,1,06,1.5,90.0,M,,,,0000*33
$GPRMC,123545.000,A,5157.4625,N,00535.6566,E,1.28,38.63,290407,,*39
$GPGGA,123546.000,5157.4629,N,00535.6583,E,1,06,1.5,89.3,M,,,,0000*3C
$GPRMC,123546.000,A,5157.4629,N,00535.6583,E,2.52,60.44,290407,,*3B
$GPGGA,123547.000,5157.4636,N,00535.6594,E,1,06,1.5,89.3,M,,,,0000*35
$GPRMC,123547.000,A,5157.4636,N,00535.6594,E,1.52,62.19,290407,,*3B
$GPGGA,123548.000,5157.4642,N,00535.6600,E,1,06,1.5,90.0,M,,,,0000*3C
$GPRMC,123548.000,A,5157.4642,N,00535.6600,E,1.25,51.53,290407,,*37
$GPGGA,123549.000,5157.4646,N,00535.6609,E,1,06,1.5,91.6,M,,,,0000*37
$GPRMC,123549.000,A,5157.4646,N,00535.6609,E,0.00,51.53,290407,,*3D
$GPGGA,123550.000,5157.4646,N,00535.6609,E,1,06,1.5,91.6,M,,,,0000*3F
$GPRMC,123550.000,A,5157.4646,N,00535.6609,E,0.00,51.53,290407,,*35
$GPGGA,123551.000,5157.4646,N,00535.6609,E,1,06,1.5,91.6,M,,,,0000*3E
$GPRMC,123551.000,A,5157.4646,N,00535.6609,E,0.00,51.53,290407,,*34
$GPGGA,123552.000,5157.4646,N,00535.6609,E,1,06,1.5,91.6,M,,,,0000*3D
$GPRMC,123552.000,A,5157.4646,N,00535.6609,E,0.00,51.53,290407,,*37
$GPGGA,123553.000,5157.4646,N,00535.6609,E,1,06,1.5,91.6,M,,,,0000*3C
$GPRMC,123553.000,A,5157.4646,N,00535.6609,E,0.00,51.53,290407,,*36
$GPGGA,123554.000,5157.4646,N,00535.6609,E,1,06,1.5,91.6,M,,,,0000*3B
$GPRMC,123554.000,A,5157.4646,N,00535.6609,E,0.00,51.53,290407,,*31
$GPGGA,123555.000,5157.4646,N,00535.6609,E,1,06,1.5,91.6,M,,,,0000*3A
$GPRMC,123555.000,A,5157.4646,N,00535.6609,E,0.00,51.53,290407,,*30
$GPGGA,123556.000,5157.4646,N,00535.6609,E,1,06,1.5,91.6,M,,,,0000*39
$GPRMC,123556.000,A,5157.4646,N,00535.6609,E,0.00,51.53,290407,,*33
$GPGGA,123557.000,5157.4646,N,00535.6609,E,1,06,1.5,91.6,M,,,,0000*38
$GPRMC,123557.000,A,5157.4646,N,00535.6609,E,0.00,51.53,290407,,*32
$GPGGA,123558.000,5157.4646,N,00535.6609,E,1,06,1.5,91.6,M,,,,0000*37
$GPRMC,123558.000,A,5157.4646,N,00535.6609,E,0.00,51.53,290407,,*3D
$GPGGA,123559.000,5157.4646,N,00535.6609,E,1,06,1.5,91.6,M,,,,0000*36
$GPRMC,123559.000,A,5157.4646,N,00535.6609,E,0.00,51.53,290407,,*3C
$GPGGA,123600.000,5157.4646,N,00535.6609,E,1,06,1.5,91.6,M,,,,0000*39
$GPRMC,123600.000,A,5157.4646,N,00535.6609,E,0.00,51.53,290407,,*33
$GPGGA,123601.000,5157.4646,N,00535.6609,E,1,06,1.5,91.6,M,,,,0000*38
$GPRMC,123601.000,A,5157.4646,N,00535.6609,E,0.00,51.53,290407,,*32
$GPGGA,123602.000,5157.4646,N,00535.6609,E,1,05,3.1,91.6,M,,,,0000*3E
$GPRMC,123602.000,A,5157.4646,N,00535.6609,E,0.00,51.53,290407,,*31
$GPGGA,123603.000,5157.4646,N,00535.6609,E,1,05,3.1,91.6,M,,,,0000*3F
$GPRMC,123603.000,A,5157.4646,N,00535.6609,E,0.00,51.53,290407,,*30
$GPGGA,123604.000,5157.4701,N,00535.6705,E,1,05,3.1,97.2,M,,,,0000*35
$GPRMC,123604.000,A,5157.4701,N,00535.6705,E,2.76,44.38,290407,,*32
$GPGGA,123605.000,5157.4706,N,00535.6712,E,1,05,3.1,97.5,M,,,,0000*32
$GPRMC,123605.000,A,5157.4706,N,00535.6712,E,1.45,32.16,290407,,*3C
$GPGGA,123606.000,5157.4719,N,00535.6711,E,1,05,3.1,97.7,M,,,,0000*3E
$GPRMC,123606.000,A,5157.4719,N,00535.6711,E,3.42,19.20,290407,,*3B
$GPGGA,123607.000,5157.4733,N,00535.6713,E,1,05,3.1,97.8,M,,,,0000*3A
$GPRMC,123607.000,A,5157.4733,N,00535.6713,E,3.41,10.42,290407,,*3E
$GPGGA,123608.000,5157.4743,N,00535.6716,E,1,05,3.1,98.4,M,,,,0000*34
$GPRMC,123608.000,A,5157.4743,N,00535.6716,E,2.88,3.70,290407,,*04
$GPGGA,123609.000,5157.4746,N,00535.6724,E,1,05,3.1,98.9,M,,,,0000*3C
$GPRMC,123609.000,A,5157.4746,N,00535.6724,E,1.28,12.39,290407,,*35
$GPGGA,123610.000,5157.4751,N,00535.6732,E,1,05,3.1,99.7,M,,,,0000*3A
$GPRMC,123610.000,A,5157.4751,N,00535.6732,E,2.00,3.82,290407,,*05
$GPGGA,123611.000,5157.4760,N,00535.6737,E,1,05,3.1,100.5,M,,,,0000*0F
$GPRMC,123611.000,A,5157.4760,N,00535.6737,E,2.36,10.85,290407,,*33
$GPGGA,123612.000,5157.4765,N,00535.6746,E,1,05,3.1,100.7,M,,,,0000*0D
$GPRMC,123612.000,A,5157.4765,N,00535.6746,E,2.28,22.32,290407,,*31
$GPGGA,123613.000,5157.4766,N,00535.6755,E,1,05,3.1,100.0,M,,,,0000*0A
$GPRMC,123613.000,A,5157.4766,N,00535.6755,E,1.50,54.25,290407,,*3A
$GPGGA,123614.000,5157.4767,N,00535.6765,E,1,05,3.1,99.9,M,,,,0000*37
$GPRMC,123614.000,A,5157.4767,N,00535.6765,E,0.00,54.25,290407,,*3B
$GPGGA,123615.000,5157.4767,N,00535.6765,E,1,05,3.1,99.9,M,,,,0000*36
$GPRMC,123615.000,A,5157.4767,N,00535.6765,E,0.00,54.25,290407,,*3A
$GPGGA,123616.000,5157.4767,N,00535.6765,E,1,05,3.1,99.9,M,,,,0000*35
$GPRMC,123616.000,A,5157.4767,N,00535.6765,E,0.00,54.25,290407,,*39
$GPGGA,123617.000,5157.4767,N,00535.6765,E,1,05,3.1,99.9,M,,,,0000*34
$GPRMC,123617.000,A,5157.4767,N,00535.6765,E,0.00,54.25,290407,,*38
$GPGGA,123618.000,5157.4767,N,00535.6765,E,1,05,3.1,99.9,M,,,,0000*3B
$GPRMC,123618.000,A,5157.4767,N,00535.6765,E,0.00,54.25,290407,,*37
$GPGGA,123619.000,5157.4767,N,00535.6765,E,1,06,1.5,99.9,M,,,,0000*3F
$GPRMC,123619.000,A,5157.4767,N,00535.6765,E,0.00,54.25,290407,,*36
$GPGGA,123620.000,5157.4767,N,00535.6765,E,1,06,1.5,99.9,M,,,,0000*35
$GPRMC,123620.000,A,5157.4767,N,00535.6765,E,0.00,54.25,290407,,*3C
$GPGGA,123621.000,5157.4818,N,00535.6800,E,1,06,1.5,94.1,M,,,,0000*3A
$GPRMC,123621.000,A,5157.4818,N,00535.6800,E,2.75,36.86,290407,,*3B
$GPGGA,123622.000,5157.4829,N,00535.6805,E,1,06,1.5,92.5,M,,,,0000*3C
$GPRMC,123622.000,A,5157.4829,N,00535.6805,E,1.68,24.11,290407,,*3D
$GPGGA,123623.000,5157.4838,N,00535.6810,E,1,06,1.5,92.2,M,,,,0000*3E
$GPRMC,123623.000,A,5157.4838,N,00535.6810,E,2.22,21.55,290407,,*30
$GPGGA,123624.000,5157.4848,N,00535.6814,E,1,06,1.5,92.0,M,,,,0000*38
$GPRMC,123624.000,A,5157.4848,N,00535.6814,E,0.00,21.55,290407,,*36
$GPGGA,123625.000,5157.4858,N,00535.6816,E,1,06,1.5,92.3,M,,,,0000*39
$GPRMC,123625.000,A,5157.4858,N,00535.6816,E,3.04,14.39,290407,,*3F
$GPGGA,123626.000,5157.4867,N,00535.6822,E,1,06,1.5,92.3,M,,,,0000*31
$GPRMC,123626.000,A,5157.4867,N,00535.6822,E,3.07,17.81,290407,,*34
$GPGGA,123627.000,5157.4880,N,00535.6828,E,1,06,1.5,92.6,M,,,,0000*36
$GPRMC,123627.000,A,5157.4880,N,00535.6828,E,3.99,16.86,290407,,*37
$GPGGA,123628.000,5157.4888,N,00535.6836,E,1,06,1.5,93.8,M,,,,0000*31
$GPRMC,123628.000,A,5157.4888,N,00535.6836,E,3.42,6.39,290407,,*0C
$GPGGA,123629.000,5157.4896,N,00535.6838,E,1,06,1.5,95.6,M,,,,0000*39
$GPRMC,123629.000,A,5157.4896,N,00535.6838,E,2.68,355.42,290407,,*0C
$GPGGA,123630.000,5157.4901,N,00535.6840,E,1,06,1.5,96.2,M,,,,0000*36
$GPRMC,123630.000,A,5157.4901,N,00535.6840,E,2.06,356.99,290407,,*09
$GPGGA,123631.000,5157.4910,N,00535.6848,E,1,06,1.5,97.9,M,,,,0000*35
$GPRMC,123631.000,A,5157.4910,N,00535.6848,E,2.42,6.34,290407,,*01
$GPGGA,123632.000,5157.4924,N,00535.6856,E,1,06,1.5,98.2,M,,,,0000*3A
$GPRMC,123632.000,A,5157.4924,N,00535.6856,E,3.73,9.97,290407,,*0F
$GPGGA,123633.000,5157.4937,N,00535.6864,E,1,06,1.5,98.1,M,,,,0000*3B
$GPRMC,123633.000,A,5157.4937,N,00535.6864,E,3.92,17.17,290407,,*35
$GPGGA,123634.000,5157.4949,N,00535.6875,E,1,06,1.5,98.7,M,,,,0000*33
$GPRMC,123634.000,A,5157.4949,N,00535.6875,E,3.34,23.64,290407,,*34
$GPGGA,123635.000,5157.4960,N,00535.6886,E,1,06,1.5,98.3,M,,,,0000*31
$GPRMC,123635.000,A,5157.4960,N,00535.6886,E,3.68,26.12,290407,,*3F
$GPGGA,123636.000,5157.4967,N,00535.6897,E,1,06,1.5,98.4,M,,,,0000*32
$GPRMC,123636.000,A,5157.4967,N,00535.6897,E,2.48,34.01,290407,,*39
$GPGGA,123637.000,5157.4969,N,00535.6908,E,1,06,1.5,98.2,M,,,,0000*3C
$GPRMC,123637.000,A,5157.4969,N,00535.6908,E,2.65,45.06,290407,,*3F
$GPGGA,123638.000,5157.4975,N,00535.6915,E,1,06,1.5,97.9,M,,,,0000*36
$GPRMC,123638.000,A,5157.4975,N,00535.6915,E,2.39,43.84,290407,,*34
$GPGGA,123639.000,5157.4981,N,00535.6916,E,1,06,1.5,97.5,M,,,,0000*33
$GPRMC,123639.000,A,5157.4981,N,00535.6916,E,1.55,37.31,290407,,*39
$GPGGA,123640.000,5157.4986,N,00535.6912,E,1,06,1.5,97.9,M,,,,0000*32
$GPRMC,123640.000,A,5157.4986,N,00535.6912,E,0.54,38.72,290407,,*3C
$GPGGA,123641.000,5157.4989,N,00535.6910,E,1,06,1.5,98.2,M,,,,0000*3A
$GPRMC,123641.000,A,5157.4989,N,00535.6910,E,0.00,38.72,290407,,*31
$GPGGA,123642.000,5157.4989,N,00535.6910,E,1,06,1.5,98.2,M,,,,0000*39
$GPRMC,123642.000,A,5157.4989,N,00535.6910,E,0.00,38.72,290407,,*32
$GPGGA,123643.000,5157.4989,N,00535.6910,E,1,06,1.5,98.2,M,,,,0000*38
$GPRMC,123643.000,A,5157.4989,N,00535.6910,E,0.00,38.72,290407,,*33
$GPGGA,123644.000,5157.4988,N,00535.6929,E,1,06,1.5,97.7,M,,,,0000*3E
$GPRMC,123644.000,A,5157.4988,N,00535.6929,E,3.26,68.85,290407,,*35
$GPGGA,123645.000,5157.4980,N,00535.6944,E,1,06,1.5,97.6,M,,,,0000*3D
$GPRMC,123645.000,A,5157.4980,N,00535.6944,E,3.21,93.02,290407,,*3B
$GPGGA,123646.000,5157.4971,N,00535.6960,E,1,06,1.5,97.5,M,,,,0000*35
$GPRMC,123646.000,A,5157.4971,N,00535.6960,E,3.36,105.89,290407,,*0B
$GPGGA,123647.000,5157.4963,N,00535.6975,E,1,06,1.5,97.5,M,,,,0000*33
$GPRMC,123647.000,A,5157.4963,N,00535.6975,E,3.66,116.21,290407,,*08
$GPGGA,123648.000,5157.4955,N,00535.6992,E,1,06,1.5,98.9,M,,,,0000*33
$GPRMC,123648.000,A,5157.4955,N,00535.6992,E,3.49,123.60,290407,,*05
$GPGGA,123649.000,5157.4946,N,00535.7010,E,1,06,1.5,98.5,M,,,,0000*3E
$GPRMC,123649.000,A,5157.4946,N,00535.7010,E,3.05,132.14,290407,,*0F
$GPGGA,123650.000,5157.4939,N,00535.7025,E,1,06,1.5,99.1,M,,,,0000*3D
$GPRMC,123650.000,A,5157.4939,N,00535.7025,E,3.22,133.57,290407,,*0A
$GPGGA,123651.000,5157.4937,N,00535.7033,E,1,06,1.5,99.3,M,,,,0000*37
$GPRMC,123651.000,A,5157.4937,N,00535.7033,E,1.58,135.76,290407,,*08
$GPGGA,123652.000,5157.4932,N,00535.7034,E,1,06,1.5,98.9,M,,,,0000*3D
$GPRMC,123652.000,A,5157.4932,N,00535.7034,E,1.57,146.91,290407,,*0B
$GPGGA,123653.000,5157.4927,N,00535.7043,E,1,06,1.5,98.7,M,,,,0000*36
$GPRMC,123653.000,A,5157.4927,N,00535.7043,E,0.00,146.91,290407,,*0D
$GPGGA,123654.000,5157.4927,N,00535.7043,E,1,06,1.5,98.7,M,,,,0000*31
$GPRMC,123654.000,A,5157.4927,N,00535.7043,E,0.00,146.91,290407,,*0A
$GPGGA,123655.000,5157.4927,N,00535.7043,E,1,06,1.5,98.7,M,,,,0000*30
$GPRMC,123655.000,A,5157.4927,N,00535.7043,E,0.00,146.91,290407,,*0B
$GPGGA,123656.000,5157.4927,N,00535.7043,E,1,06,1.5,98.7,M,,,,0000*33
$GPRMC,123656.000,A,5157.4927,N,00535.7043,E,0.00,146.91,290407,,*08
$GPGGA,123657.000,5157.4927,N,00535.7043,E,1,06,1.5,98.7,M,,,,0000*32
$GPRMC,123657.000,A,5157.4927,N,00535.7043,E,0.00,146.91,290407,,*09
$GPGGA,123658.000,5157.4927,N,00535.7043,E,1,06,1.5,98.7,M,,,,0000*3D
$GPRMC,123658.000,A,5157.4927,N,00535.7043,E,0.00,146.91,290407,,*06
$GPGGA,123659.000,5157.4927,N,00535.7043,E,1,06,1.5,98.7,M,,,,0000*3C
$GPRMC,123659.000,A,5157.4927,N,00535.7043,E,0.00,146.91,290407,,*07
$GPGGA,123700.000,5157.4927,N,00535.7043,E,1,06,1.5,98.7,M,,,,0000*31
$GPRMC,123700.000,A,5157.4927,N,00535.7043,E,0.00,146.91,290407,,*0A
$GPGGA,123701.000,5157.4927,N,00535.7043,E,1,06,1.5,98.7,M,,,,0000*30
$GPRMC,123701.000,A,5157.4927,N,00535.7043,E,0.00,146.91,290407,,*0B
$GPGGA,123702.000,5157.4927,N,00535.7043,E,1,06,1.5,98.7,M,,,,0000*33
$GPRMC,123702.000,A,5157.4927,N,00535.7043,E,0.00,146.91,290407,,*08
$GPGGA,123703.000,5157.4927,N,00535.7043,E,1,06,1.5,98.7,M,,,,0000*32
$GPRMC,123703.000,A,5157.4927,N,00535.7043,E,0.00,146.91,290407,,*09
$GPGGA,123704.000,5157.4927,N,00535.7043,E,1,06,1.5,98.7,M,,,,0000*35
$GPRMC,123704.000,A,5157.4927,N,00535.7043,E,0.00,146.91,290407,,*0E
$GPGGA,123705.000,5157.4938,N,00535.7126,E,1,06,1.5,91.6,M,,,,0000*30
$GPRMC,123705.000,A,5157.4938,N,00535.7126,E,3.66,136.33,290407,,*0F
$GPGGA,123706.000,5157.4931,N,00535.7140,E,1,06,1.5,91.7,M,,,,0000*3B
$GPRMC,123706.000,A,5157.4931,N,00535.7140,E,3.68,129.01,290407,,*04
$GPGGA,123707.000,5157.4926,N,00535.7156,E,1,06,1.5,92.0,M,,,,0000*3F
$GPRMC,123707.000,A,5157.4926,N,00535.7156,E,4.13,126.41,290407,,*04
$GPGGA,123708.000,5157.4921,N,00535.7170,E,1,06,1.5,92.5,M,,,,0000*36
$GPRMC,123708.000,A,5157.4921,N,00535.7170,E,2.90,121.06,290407,,*01
$GPGGA,123709.000,5157.4916,N,00535.7182,E,1,06,1.5,92.9,M,,,,0000*32
$GPRMC,123709.000,A,5157.4916,N,00535.7182,E,2.07,123.66,290407,,*03
$GPGGA,123710.000,5157.4907,N,00535.7195,E,1,06,1.5,92.8,M,,,,0000*3D
$GPRMC,123710.000,A,5157.4907,N,00535.7195,E,2.55,127.77,290407,,*0E
$GPGGA,123711.000,5157.4902,N,00535.7210,E,1,06,1.5,92.9,M,,,,0000*36
$GPRMC,123711.000,A,5157.4902,N,00535.7210,E,3.49,123.52,290407,,*0B
$GPGGA,123712.000,5157.4895,N,00535.7236,E,1,06,1.5,93.1,M,,,,0000*37
$GPRMC,123712.000,A,5157.4895,N,00535.7236,E,4.43,119.39,290407,,*0A
$GPGGA,123713.000,5157.4888,N,00535.7256,E,1,06,1.5,93.7,M,,,,0000*3A
$GPRMC,123713.000,A,5157.4888,N,00535.7256,E,4.78,123.64,290407,,*08
$GPGGA,123714.000,5157.4882,N,00535.7270,E,1,06,1.5,94.6,M,,,,0000*35
$GPRMC,123714.000,A,5157.4882,N,00535.7270,E,2.73,126.15,290407,,*0F
$GPGGA,123715.000,5157.4879,N,00535.7277,E,1,06,1.5,95.1,M,,,,0000*31
$GPRMC,123715.000,A,5157.4879,N,00535.7277,E,2.11,127.52,290407,,*0B
$GPGGA,123716.000,5157.4876,N,00535.7285,E,1,06,1.5,96.1,M,,,,0000*33
$GPRMC,123716.000,A,5157.4876,N,00535.7285,E,1.66,121.55,290407,,*08
$GPGGA,123717.000,5157.4878,N,00535.7296,E,1,06,1.5,96.4,M,,,,0000*3B
$GPRMC,123717.000,A,5157.4878,N,00535.7296,E,0.00,121.55,290407,,*04
$GPGGA,123718.000,5157.4878,N,00535.7296,E,1,06,1.5,96.4,M,,,,0000*34
$GPRMC,123718.000,A,5157.4878,N,00535.7296,E,0.00,121.55,290407,,*0B
$GPGGA,123719.000,5157.4878,N,00535.7296,E,1,06,1.5,96.4,M,,,,0000*35
$GPRMC,123719.000,A,5157.4878,N,00535.7296,E,0.00,121.55,290407,,*0A
$GPGGA,123720.000,5157.4872,N,00535.7335,E,1,06,1.5,97.3,M,,,,0000*3B
$GPRMC,123720.000,A,5157.4872,N,00535.7335,E,3.07,117.98,290407,,*02
$GPGGA,123721.000,5157.4870,N,00535.7344,E,1,06,1.5,97.4,M,,,,0000*39
$GPRMC,123721.000,A,5157.4870,N,00535.7344,E,2.19,113.32,290407,,*0D
$GPGGA,123722.000,5157.4870,N,00535.7352,E,1,06,1.5,97.1,M,,,,0000*38
$GPRMC,123722.000,A,5157.4870,N,00535.7352,E,1.85,108.12,290407,,*07
$GPGGA,123723.000,5157.4869,N,00535.7363,E,1,06,1.5,96.4,M,,,,0000*37
$GPRMC,123723.000,A,5157.4869,N,00535.7363,E,0.00,108.12,290407,,*00
$GPGGA,123724.000,5157.4869,N,00535.7363,E,1,06,1.5,96.4,M,,,,0000*30
$GPRMC,123724.000,A,5157.4869,N,00535.7363,E,0.00,108.12,290407,,*07
$GPGGA,123725.000,5157.4869,N,00535.7363,E,1,06,1.5,96.4,M,,,,0000*31
$GPRMC,123725.000,A,5157.4869,N,00535.7363,E,0.00,108.12,290407,,*06
$GPGGA,123726.000,5157.4869,N,00535.7363,E,1,06,1.5,96.4,M,,,,0000*32
$GPRMC,123726.000,A,5157.4869,N,00535.7363,E,0.00,108.12,290407,,*05
$GPGGA,123727.000,5157.4869,N,00535.7363,E,1,06,1.5,96.4,M,,,,0000*33
$GPRMC,123727.000,A,5157.4869,N,00535.7363,E,0.00,108.12,290407,,*04
$GPGGA,123728.000,5157.4859,N,00535.7412,E,1,06,1.5,93.5,M,,,,0000*3A
$GPRMC,123728.000,A,5157.4859,N,00535.7412,E,3.26,118.10,290407,,*0D
$GPGGA,123729.000,5157.4850,N,00535.7422,E,1,06,1.5,93.7,M,,,,0000*33
$GPRMC,123729.000,A,5157.4850,N,00535.7422,E,3.37,124.45,290407,,*09
$GPGGA,123730.000,5157.4842,N,00535.7434,E,1,06,1.5,94.4,M,,,,0000*3B
$GPRMC,123730.000,A,5157.4842,N,00535.7434,E,3.86,126.79,290407,,*02
$GPGGA,123731.000,5157.4835,N,00535.7447,E,1,06,1.5,95.0,M,,,,0000*3B
$GPRMC,123731.000,A,5157.4835,N,00535.7447,E,4.01,127.65,290407,,*03
$GPGGA,123732.000,5157.4830,N,00535.7460,E,1,06,1.5,94.9,M,,,,0000*30
$GPRMC,123732.000,A,5157.4830,N,00535.7460,E,2.95,127.76,290407,,*09
$GPGGA,123733.000,5157.4823,N,00535.7472,E,1,06,1.5,94.7,M,,,,0000*3E
$GPRMC,123733.000,A,5157.4823,N,00535.7472,E,4.27,133.63,290407,,*07
$GPGGA,123734.000,5157.4819,N,00535.7480,E,1,06,1.5,94.7,M,,,,0000*3D
$GPRMC,123734.000,A,5157.4819,N,00535.7480,E,2.83,137.42,290407,,*0B
$GPGGA,123735.000,5157.4816,N,00535.7482,E,1,06,1.5,95.0,M,,,,0000*37
$GPRMC,123735.000,A,5157.4816,N,00535.7482,E,1.85,147.31,290407,,*01
$GPGGA,123736.000,5157.4814,N,00535.7488,E,1,06,1.5,94.3,M,,,,0000*3E
$GPRMC,123736.000,A,5157.4814,N,00535.7488,E,1.52,146.80,290407,,*0B
$GPGGA,123737.000,5157.4816,N,00535.7492,E,1,06,1.5,94.6,M,,,,0000*33
$GPRMC,123737.000,A,5157.4816,N,00535.7492,E,0.00,146.80,290407,,*05
$GPGGA,123738.000,5157.4816,N,00535.7492,E,1,06,1.5,94.6,M,,,,0000*3C
$GPRMC,123738.000,A,5157.4816,N,00535.7492,E,0.00,146.80,290407,,*0A
$GPGGA,123739.000,5157.4819,N,00535.7509,E,1,06,1.5,95.9,M,,,,0000*3F
$GPRMC,123739.000,A,5157.4819,N,00535.7509,E,3.12,142.76,290407,,*0A
$GPGGA,123740.000,5157.4813,N,00535.7522,E,1,06,1.5,97.4,M,,,,0000*3D
$GPRMC,123740.000,A,5157.4813,N,00535.7522,E,3.84,142.63,290407,,*0C
$GPGGA,123741.000,5157.4808,N,00535.7533,E,1,06,1.5,98.0,M,,,,0000*3D
$GPRMC,123741.000,A,5157.4808,N,00535.7533,E,3.35,138.98,290407,,*04
$GPGGA,123742.000,5157.4805,N,00535.7540,E,1,06,1.5,97.6,M,,,,0000*3E
$GPRMC,123742.000,A,5157.4805,N,00535.7540,E,1.82,143.45,290407,,*0C
$GPGGA,123743.000,5157.4805,N,00535.7540,E,1,06,1.4,96.9,M,,,,0000*30
$GPRMC,123743.000,A,5157.4805,N,00535.7540,E,0.97,159.41,290407,,*07
$GPGGA,123744.000,5157.4800,N,00535.7548,E,1,06,1.4,96.5,M,,,,0000*36
$GPRMC,123744.000,A,5157.4800,N,00535.7548,E,0.00,159.41,290407,,*03
$GPGGA,123745.000,5157.4800,N,00535.7548,E,1,06,1.4,96.5,M,,,,0000*37
$GPRMC,123745.000,A,5157.4800,N,00535.7548,E,0.00,159.41,290407,,*02
$GPGGA,123746.000,5157.4796,N,00535.7563,E,1,06,1.4,94.8,M,,,,0000*32
$GPRMC,123746.000,A,5157.4796,N,00535.7563,E,2.72,151.14,290407,,*07
$GPGGA,123747.000,5157.4792,N,00535.7574,E,1,06,1.4,93.7,M,,,,0000*39
$GPRMC,123747.000,A,5157.4792,N,00535.7574,E,3.04,139.52,290407,,*08
$GPGGA,123748.000,5157.4792,N,00535.7580,E,1,06,1.4,93.2,M,,,,0000*38
$GPRMC,123748.000,A,5157.4792,N,00535.7580,E,2.30,126.11,290407,,*03
$GPGGA,123749.000,5157.4792,N,00535.7596,E,1,06,1.4,92.2,M,,,,0000*3F
$GPRMC,123749.000,A,5157.4792,N,00535.7596,E,3.83,112.37,290407,,*0F
$GPGGA,123750.000,5157.4795,N,00535.7612,E,1,06,1.4,91.2,M,,,,0000*3C
$GPRMC,123750.000,A,5157.4795,N,00535.7612,E,2.54,102.04,290407,,*05
$GPGGA,123751.000,5157.4792,N,00535.7625,E,1,06,1.4,90.6,M,,,,0000*3B
$GPRMC,123751.000,A,5157.4792,N,00535.7625,E,2.51,106.53,290407,,*04
$GPGGA,123752.000,5157.4787,N,00535.7636,E,1,06,1.4,90.4,M,,,,0000*3C
$GPRMC,123752.000,A,5157.4787,N,00535.7636,E,2.70,111.54,290407,,*03
$GPGGA,123753.000,5157.4780,N,00535.7649,E,1,06,1.4,90.1,M,,,,0000*37
$GPRMC,123753.000,A,5157.4780,N,00535.7649,E,3.18,115.19,290407,,*0F
$GPGGA,123754.000,5157.4778,N,00535.7658,E,1,06,1.4,89.8,M,,,,0000*36
$GPRMC,123754.000,A,5157.4778,N,00535.7658,E,2.35,118.80,290407,,*0C
$GPGGA,123755.000,5157.4773,N,00535.7672,E,1,06,1.4,89.3,M,,,,0000*3F
$GPRMC,123755.000,A,5157.4773,N,00535.7672,E,3.15,117.87,290407,,*05
$GPGGA,123756.000,5157.4771,N,00535.7682,E,1,06,1.4,90.2,M,,,,0000*38
$GPRMC,123756.000,A,5157.4771,N,00535.7682,E,2.49,120.55,290407,,*08
$GPGGA,123757.000,5157.4766,N,00535.7694,E,1,06,1.4,90.7,M,,,,0000*3D
$GPRMC,123757.000,A,5157.4766,N,00535.7694,E,3.35,124.43,290407,,*01
$GPGGA,123758.000,5157.4765,N,00535.7701,E,1,06,1.4,91.7,M,,,,0000*3D
$GPRMC,123758.000,A,5157.4765,N,00535.7701,E,2.80,130.27,290407,,*08
$GPGGA,123759.000,5157.4764,N,00535.7709,E,1,06,1.4,92.8,M,,,,0000*39
$GPRMC,123759.000,A,5157.4764,N,00535.7709,E,2.25,127.62,290407,,*08
$GPGGA,123800.000,5157.4760,N,00535.7721,E,1,06,1.4,93.4,M,,,,0000*39
$GPRMC,123800.000,A,5157.4760,N,00535.7721,E,1.65,127.20,290407,,*04
$GPGGA,123801.000,5157.4755,N,00535.7733,E,1,06,1.4,93.9,M,,,,0000*30
$GPRMC,123801.000,A,5157.4755,N,00535.7733,E,0.00,127.20,290407,,*02
$GPGGA,123802.000,5157.4755,N,00535.7733,E,1,06,1.4,93.9,M,,,,0000*33
$GPRMC,123802.000,A,5157.4755,N,00535.7733,E,0.00,127.20,290407,,*01
$GPGGA,123803.000,5157.4755,N,00535.7733,E,1,06,1.4,93.9,M,,,,0000*32
$GPRMC,123803.000,A,5157.4755,N,00535.7733,E,0.00,127.20,290407,,*00
$GPGGA,123804.000,5157.4730,N,00535.7784,E,1,06,1.4,93.2,M,,,,0000*31
$GPRMC,123804.000,A,5157.4730,N,00535.7784,E,2.63,117.42,290407,,*08
$GPGGA,123805.000,5157.4740,N,00535.7789,E,1,07,1.1,93.3,M,,,,0000*3F
$GPRMC,123805.000,A,5157.4740,N,00535.7789,E,2.65,101.22,290407,,*04
$GPGGA,123806.000,5157.4743,N,00535.7800,E,1,07,1.1,93.6,M,,,,0000*34
$GPRMC,123806.000,A,5157.4743,N,00535.7800,E,2.48,92.98,290407,,*3F
$GPGGA,123807.000,5157.4747,N,00535.7813,E,1,07,1.2,94.1,M,,,,0000*30
$GPRMC,123807.000,A,5157.4747,N,00535.7813,E,4.13,90.48,290407,,*3F
$GPGGA,123808.000,5157.4749,N,00535.7823,E,1,07,1.2,94.1,M,,,,0000*32
$GPRMC,123808.000,A,5157.4749,N,00535.7823,E,2.92,93.55,290407,,*3D
$GPGGA,123809.000,5157.4746,N,00535.7834,E,1,07,1.2,94.3,M,,,,0000*38
$GPRMC,123809.000,A,5157.4746,N,00535.7834,E,3.84,104.08,290407,,*04
$GPGGA,123810.000,5157.4741,N,00535.7843,E,1,07,1.2,94.6,M,,,,0000*32
$GPRMC,123810.000,A,5157.4741,N,00535.7843,E,2.89,110.63,290407,,*0F
$GPGGA,123811.000,5157.4737,N,00535.7847,E,1,07,1.2,95.0,M,,,,0000*31
$GPRMC,123811.000,A,5157.4737,N,00535.7847,E,1.61,113.83,290407,,*03
$GPGGA,123812.000,5157.4735,N,00535.7851,E,1,07,1.2,96.0,M,,,,0000*34
$GPRMC,123812.000,A,5157.4735,N,00535.7851,E,0.99,116.95,290407,,*01
$GPGGA,123813.000,5157.4729,N,00535.7852,E,1,07,1.2,97.2,M,,,,0000*38
$GPRMC,123813.000,A,5157.4729,N,00535.7852,E,0.00,116.95,290407,,*0E
$GPGGA,123814.000,5157.4729,N,00535.7852,E,1,07,1.2,97.2,M,,,,0000*3F
$GPRMC,123814.000,A,5157.4729,N,00535.7852,E,0.00,116.95,290407,,*09
$GPGGA,123815.000,5157.4719,N,00535.7867,E,1,07,1.2,98.3,M,,,,0000*35
$GPRMC,123815.000,A,5157.4719,N,00535.7867,E,3.35,117.59,290407,,*09
$GPGGA,123816.000,5157.4711,N,00535.7877,E,1,07,1.2,98.5,M,,,,0000*39
$GPRMC,123816.000,A,5157.4711,N,00535.7877,E,2.58,119.81,290407,,*02
$GPGGA,123817.000,5157.4706,N,00535.7890,E,1,07,1.2,98.6,M,,,,0000*34
$GPRMC,123817.000,A,5157.4706,N,00535.7890,E,3.28,116.27,290407,,*09
$GPGGA,123818.000,5157.4702,N,00535.7898,E,1,07,1.2,98.8,M,,,,0000*39
$GPRMC,123818.000,A,5157.4702,N,00535.7898,E,1.82,109.81,290407,,*0A
$GPGGA,123819.000,5157.4704,N,00535.7905,E,1,07,1.2,98.6,M,,,,0000*35
$GPRMC,123819.000,A,5157.4704,N,00535.7905,E,2.33,96.01,290407,,*3E
$GPGGA,123820.000,5157.4705,N,00535.7917,E,1,07,1.2,97.8,M,,,,0000*3C
$GPRMC,123820.000,A,5157.4705,N,00535.7917,E,3.08,92.88,290407,,*3A
$GPGGA,123821.000,5157.4704,N,00535.7936,E,1,07,1.2,97.5,M,,,,0000*32
$GPRMC,123821.000,A,5157.4704,N,00535.7936,E,3.41,90.02,290407,,*34
$GPGGA,123822.000,5157.4704,N,00535.7951,E,1,07,1.2,97.7,M,,,,0000*32
$GPRMC,123822.000,A,5157.4704,N,00535.7951,E,2.80,91.47,290407,,*3A
$GPGGA,123823.000,5157.4701,N,00535.7965,E,1,07,1.2,97.9,M,,,,0000*3F
$GPRMC,123823.000,A,5157.4701,N,00535.7965,E,2.79,101.93,290407,,*0E
$GPGGA,123824.000,5157.4701,N,00535.7978,E,1,07,1.2,97.7,M,,,,0000*3A
$GPRMC,123824.000,A,5157.4701,N,00535.7978,E,2.00,105.29,290407,,*0E
$GPGGA,123825.000,5157.4699,N,00535.7992,E,1,07,1.2,98.5,M,,,,0000*32
$GPRMC,123825.000,A,5157.4699,N,00535.7992,E,2.64,109.96,290407,,*01
$GPGGA,123826.000,5157.4696,N,00535.8002,E,1,07,1.2,99.1,M,,,,0000*34
$GPRMC,123826.000,A,5157.4696,N,00535.8002,E,2.40,118.60,290407,,*0D
$GPGGA,123827.000,5157.4691,N,00535.8011,E,1,07,1.2,99.6,M,,,,0000*37
$GPRMC,123827.000,A,5157.4691,N,00535.8011,E,1.90,121.31,290407,,*09
$GPGGA,123828.000,5157.4688,N,00535.8017,E,1,07,1.2,100.1,M,,,,0000*00
$GPRMC,123828.000,A,5157.4688,N,00535.8017,E,1.55,123.19,290407,,*09
$GPGGA,123829.000,5157.4686,N,00535.8026,E,1,07,1.2,100.1,M,,,,0000*0D
$GPRMC,123829.000,A,5157.4686,N,00535.8026,E,0.00,123.19,290407,,*05
$GPGGA,123830.000,5157.4686,N,00535.8026,E,1,07,1.2,100.1,M,,,,0000*05
$GPRMC,123830.000,A,5157.4686,N,00535.8026,E,0.00,123.19,290407,,*0D
$GPGGA,123831.000,5157.4681,N,00535.8042,E,1,06,1.2,99.7,M,,,,0000*37
$GPRMC,123831.000,A,5157.4681,N,00535.8042,E,2.75,124.06,290407,,*00
$GPGGA,123832.000,5157.4679,N,00535.8051,E,1,07,1.2,99.5,M,,,,0000*32
$GPRMC,123832.000,A,5157.4679,N,00535.8051,E,2.80,120.94,290407,,*03
$GPGGA,123833.000,5157.4679,N,00535.8056,E,1,07,1.2,99.7,M,,,,0000*36
$GPRMC,123833.000,A,5157.4679,N,00535.8056,E,1.93,113.97,290407,,*07
$GPGGA,123834.000,5157.4675,N,00535.8062,E,1,07,1.2,99.5,M,,,,0000*38
$GPRMC,123834.000,A,5157.4675,N,00535.8062,E,2.04,116.85,290407,,*00
$GPGGA,123835.000,5157.4673,N,00535.8070,E,1,07,1.2,99.5,M,,,,0000*3C
$GPRMC,123835.000,A,5157.4673,N,00535.8070,E,0.00,116.85,290407,,*02
$GPGGA,123836.000,5157.4673,N,00535.8070,E,1,07,1.2,99.5,M,,,,0000*3F
$GPRMC,123836.000,A,5157.4673,N,00535.8070,E,0.00,116.85,290407,,*01
$GPGGA,123837.000,5157.4671,N,00535.8088,E,1,07,1.2,99.9,M,,,,0000*37
$GPRMC,123837.000,A,5157.4671,N,00535.8088,E,2.57,108.07,290407,,*00
$GPGGA,123838.000,5157.4670,N,00535.8097,E,1,07,1.2,100.2,M,,,,0000*0D
$GPRMC,123838.000,A,5157.4670,N,00535.8097,E,1.89,103.79,290407,,*02
$GPGGA,123839.000,5157.4668,N,00535.8107,E,1,07,1.2,100.0,M,,,,0000*0F
$GPRMC,123839.000,A,5157.4668,N,00535.8107,E,2.10,108.73,290407,,*00
$GPGGA,123840.000,5157.4663,N,00535.8118,E,1,07,1.2,99.2,M,,,,0000*37
$GPRMC,123840.000,A,5157.4663,N,00535.8118,E,0.00,108.73,290407,,*08
$GPGGA,123841.000,5157.4663,N,00535.8118,E,1,06,1.2,99.2,M,,,,0000*37
$GPRMC,123841.000,A,5157.4663,N,00535.8118,E,0.00,108.73,290407,,*09
$GPGGA,123842.000,5157.4663,N,00535.8118,E,1,07,1.2,99.2,M,,,,0000*35
$GPRMC,123842.000,A,5157.4663,N,00535.8118,E,0.00,108.73,290407,,*0A
$GPGGA,123843.000,5157.4663,N,00535.8118,E,1,07,1.2,99.2,M,,,,0000*34
$GPRMC,123843.000,A,5157.4663,N,00535.8118,E,0.00,108.73,290407,,*0B
$GPGGA,123844.000,5157.4643,N,00535.8145,E,1,07,1.2,94.4,M,,,,0000*32
$GPRMC,123844.000,A,5157.4643,N,00535.8145,E,2.72,125.15,290407,,*0E
$GPGGA,123845.000,5157.4636,N,00535.8147,E,1,07,1.2,94.0,M,,,,0000*37
$GPRMC,123845.000,A,5157.4636,N,00535.8147,E,1.41,135.16,290407,,*0E
$GPGGA,123846.000,5157.4626,N,00535.8153,E,1,07,1.2,92.9,M,,,,0000*3F
$GPRMC,123846.000,A,5157.4626,N,00535.8153,E,3.41,140.95,290407,,*02
$GPGGA,123847.000,5157.4619,N,00535.8165,E,1,07,1.2,91.9,M,,,,0000*34
$GPRMC,123847.000,A,5157.4619,N,00535.8165,E,3.16,142.05,290407,,*03
$GPGGA,123848.000,5157.4613,N,00535.8169,E,1,07,1.2,90.6,M,,,,0000*33
$GPRMC,123848.000,A,5157.4613,N,00535.8169,E,2.19,150.88,290407,,*02
$GPGGA,123849.000,5157.4607,N,00535.8171,E,1,07,1.2,89.4,M,,,,0000*34
$GPRMC,123849.000,A,5157.4607,N,00535.8171,E,2.08,156.59,290407,,*05
$GPGGA,123850.000,5157.4596,N,00535.8177,E,1,07,1.2,89.7,M,,,,0000*32
$GPRMC,123850.000,A,5157.4596,N,00535.8177,E,3.99,158.07,290407,,*0C
$GPGGA,123851.000,5157.4589,N,00535.8188,E,1,07,1.2,90.1,M,,,,0000*33
$GPRMC,123851.000,A,5157.4589,N,00535.8188,E,3.06,156.64,290407,,*0E
$GPGGA,123852.000,5157.4577,N,00535.8200,E,1,07,1.2,91.0,M,,,,0000*32
$GPRMC,123852.000,A,5157.4577,N,00535.8200,E,2.79,157.20,290407,,*07
$GPGGA,123853.000,5157.4567,N,00535.8211,E,1,07,1.2,90.4,M,,,,0000*37
$GPRMC,123853.000,A,5157.4567,N,00535.8211,E,3.36,153.32,290407,,*0A
$GPGGA,123854.000,5157.4559,N,00535.8219,E,1,07,1.2,90.4,M,,,,0000*35
$GPRMC,123854.000,A,5157.4559,N,00535.8219,E,2.44,150.60,290407,,*08
$GPGGA,123855.000,5157.4552,N,00535.8228,E,1,07,1.2,90.7,M,,,,0000*3E
$GPRMC,123855.000,A,5157.4552,N,00535.8228,E,1.04,145.14,290407,,*00
$GPGGA,123856.000,5157.4546,N,00535.8241,E,1,07,1.2,92.1,M,,,,0000*33
$GPRMC,123856.000,A,5157.4546,N,00535.8241,E,2.32,149.60,290407,,*00
$GPGGA,123857.000,5157.4544,N,00535.8256,E,1,07,1.2,93.7,M,,,,0000*31
$GPRMC,123857.000,A,5157.4544,N,00535.8256,E,0.00,149.60,290407,,*06
$GPGGA,123858.000,5157.4544,N,00535.8256,E,1,06,2.0,93.7,M,,,,0000*3E
$GPRMC,123858.000,A,5157.4544,N,00535.8256,E,0.00,149.60,290407,,*09
$GPGGA,123859.000,5157.4545,N,00535.8286,E,1,07,1.2,92.7,M,,,,0000*32
$GPRMC,123859.000,A,5157.4545,N,00535.8286,E,3.30,130.60,290407,,*0A
$GPGGA,123900.000,5157.4545,N,00535.8304,E,1,07,1.2,92.1,M,,,,0000*32
$GPRMC,123900.000,A,5157.4545,N,00535.8304,E,3.05,120.36,290407,,*08
$GPGGA,123901.000,5157.4543,N,00535.8320,E,1,07,1.2,91.2,M,,,,0000*33
$GPRMC,123901.000,A,5157.4543,N,00535.8320,E,3.12,122.27,290407,,*0D
$GPGGA,123902.000,5157.4542,N,00535.8334,E,1,07,1.2,90.3,M,,,,0000*34
$GPRMC,123902.000,A,5157.4542,N,00535.8334,E,3.47,121.16,290407,,*0B
$GPGGA,123903.000,5157.4543,N,00535.8343,E,1,07,1.2,88.5,M,,,,0000*3B
$GPRMC,123903.000,A,5157.4543,N,00535.8343,E,1.77,123.92,290407,,*04
$GPGGA,123904.000,5157.4548,N,00535.8352,E,1,07,1.2,88.0,M,,,,0000*32
$GPRMC,123904.000,A,5157.4548,N,00535.8352,E,2.67,114.08,290407,,*0D
$GPGGA,123905.000,5157.4551,N,00535.8364,E,1,07,1.2,88.2,M,,,,0000*3C
$GPRMC,123905.000,A,5157.4551,N,00535.8364,E,2.26,110.32,290407,,*09
$GPGGA,123906.000,5157.4547,N,00535.8371,E,1,07,1.2,88.3,M,,,,0000*3D
$GPRMC,123906.000,A,5157.4547,N,00535.8371,E,2.07,116.98,290407,,*0C
$GPGGA,123907.000,5157.4544,N,00535.8372,E,1,07,1.2,88.5,M,,,,0000*3A
$GPRMC,123907.000,A,5157.4544,N,00535.8372,E,0.00,116.98,290407,,*08
$GPGGA,123908.000,5157.4544,N,00535.8372,E,1,07,1.2,88.5,M,,,,0000*35
$GPRMC,123908.000,A,5157.4544,N,00535.8372,E,0.00,116.98,290407,,*07
$GPGGA,123909.000,5157.4539,N,00535.8394,E,1,07,1.2,87.2,M,,,,0000*3E
$GPRMC,123909.000,A,5157.4539,N,00535.8394,E,3.35,111.40,290407,,*03
$GPGGA,123910.000,5157.4541,N,00535.8409,E,1,07,1.2,87.5,M,,,,0000*3D
$GPRMC,123910.000,A,5157.4541,N,00535.8409,E,3.05,100.69,290407,,*0F
$GPGGA,123911.000,5157.4546,N,00535.8425,E,1,07,1.2,89.5,M,,,,0000*3B
$GPRMC,123911.000,A,5157.4546,N,00535.8425,E,2.65,94.91,290407,,*3B
$GPGGA,123912.000,5157.4552,N,00535.8443,E,1,07,1.2,91.2,M,,,,0000*33
$GPRMC,123912.000,A,5157.4552,N,00535.8443,E,2.75,81.91,290407,,*38
$GPGGA,123913.000,5157.4551,N,00535.8457,E,1,07,1.2,90.7,M,,,,0000*30
$GPRMC,123913.000,A,5157.4551,N,00535.8457,E,2.03,85.81,290407,,*3B
$GPGGA,123914.000,5157.4547,N,00535.8470,E,1,07,1.2,90.4,M,,,,0000*36
$GPRMC,123914.000,A,5157.4547,N,00535.8470,E,2.55,94.25,290407,,*33
$GPGGA,123915.000,5157.4549,N,00535.8481,E,1,07,1.2,91.3,M,,,,0000*31
$GPRMC,123915.000,A,5157.4549,N,00535.8481,E,1.50,91.17,290407,,*30
$GPGGA,123916.000,5157.4554,N,00535.8492,E,1,07,1.2,92.6,M,,,,0000*3A
$GPRMC,123916.000,A,5157.4554,N,00535.8492,E,1.82,85.49,290407,,*3C
$GPGGA,123917.000,5157.4557,N,00535.8505,E,1,07,1.2,93.1,M,,,,0000*31
$GPRMC,123917.000,A,5157.4557,N,00535.8505,E,0.00,85.49,290407,,*3A
$GPGGA,123918.000,5157.4557,N,00535.8505,E,1,07,1.2,93.1,M,,,,0000*3E
$GPRMC,123918.000,A,5157.4557,N,00535.8505,E,0.00,85.49,290407,,*35
$GPGGA,123919.000,5157.4562,N,00535.8529,E,1,07,1.2,94.2,M,,,,0000*33
$GPRMC,123919.000,A,5157.4562,N,00535.8529,E,2.66,85.55,290407,,*33
$GPGGA,123920.000,5157.4568,N,00535.8539,E,1,07,1.2,94.4,M,,,,0000*34
$GPRMC,123920.000,A,5157.4568,N,00535.8539,E,2.47,77.03,290407,,*3F
$GPGGA,123921.000,5157.4571,N,00535.8556,E,1,07,1.2,94.5,M,,,,0000*35
$GPRMC,123921.000,A,5157.4571,N,00535.8556,E,2.99,72.87,290407,,*35
$GPGGA,123922.000,5157.4572,N,00535.8571,E,1,07,1.2,95.1,M,,,,0000*35
$GPRMC,123922.000,A,5157.4572,N,00535.8571,E,1.93,76.63,290407,,*37
$GPGGA,123923.000,5157.4572,N,00535.8581,E,1,07,1.2,94.9,M,,,,0000*32
$GPRMC,123923.000,A,5157.4572,N,00535.8581,E,1.84,74.71,290407,,*3E
$GPGGA,123924.000,5157.4575,N,00535.8592,E,1,07,1.2,94.4,M,,,,0000*3D
$GPRMC,123924.000,A,5157.4575,N,00535.8592,E,2.80,66.29,290407,,*35
$GPGGA,123925.000,5157.4583,N,00535.8603,E,1,07,1.2,93.7,M,,,,0000*3A
$GPRMC,123925.000,A,5157.4583,N,00535.8603,E,2.41,60.38,290407,,*3D
$GPGGA,123926.000,5157.4590,N,00535.8612,E,1,07,1.2,93.6,M,,,,0000*3A
$GPRMC,123926.000,A,5157.4590,N,00535.8612,E,2.70,57.76,290407,,*30
$GPGGA,123927.000,5157.4593,N,00535.8624,E,1,07,1.2,93.5,M,,,,0000*3E
$GPRMC,123927.000,A,5157.4593,N,00535.8624,E,2.75,63.58,290407,,*39
$GPGGA,123928.000,5157.4595,N,00535.8636,E,1,07,1.2,93.2,M,,,,0000*33
$GPRMC,123928.000,A,5157.4595,N,00535.8636,E,1.82,72.26,290407,,*31
$GPGGA,123929.000,5157.4594,N,00535.8648,E,1,07,1.2,93.8,M,,,,0000*30
$GPRMC,123929.000,A,5157.4594,N,00535.8648,E,1.51,81.85,290407,,*33
$GPGGA,123930.000,5157.4591,N,00535.8663,E,1,07,1.2,94.3,M,,,,0000*38
$GPRMC,123930.000,A,5157.4591,N,00535.8663,E,0.00,81.85,290407,,*32
$GPGGA,123931.000,5157.4591,N,00535.8680,E,1,07,1.2,94.7,M,,,,0000*30
$GPRMC,123931.000,A,5157.4591,N,00535.8680,E,3.19,80.15,290407,,*3D
$GPGGA,123932.000,5157.4593,N,00535.8694,E,1,07,1.2,95.0,M,,,,0000*32
$GPRMC,123932.000,A,5157.4593,N,00535.8694,E,1.97,74.35,290407,,*34
$GPGGA,123933.000,5157.4592,N,00535.8703,E,1,07,1.2,95.4,M,,,,0000*39
$GPRMC,123933.000,A,5157.4592,N,00535.8703,E,2.28,84.17,290407,,*33
$GPGGA,123934.000,5157.4590,N,00535.8713,E,1,07,1.2,96.5,M,,,,0000*3F
$GPRMC,123934.000,A,5157.4590,N,00535.8713,E,0.00,84.17,290407,,*3F
$GPGGA,123935.000,5157.4590,N,00535.8726,E,1,07,1.2,97.0,M,,,,0000*3C
$GPRMC,123935.000,A,5157.4590,N,00535.8726,E,2.69,89.55,290407,,*3E
$GPGGA,123936.000,5157.4588,N,00535.8738,E,1,07,1.2,96.4,M,,,,0000*3C
$GPRMC,123936.000,A,5157.4588,N,00535.8738,E,2.41,98.06,290407,,*37
$GPGGA,123937.000,5157.4585,N,00535.8748,E,1,07,1.2,96.1,M,,,,0000*32
$GPRMC,123937.000,A,5157.4585,N,00535.8748,E,1.90,102.69,290407,,*08
$GPGGA,123938.000,5157.4580,N,00535.8757,E,1,07,1.2,96.6,M,,,,0000*31
$GPRMC,123938.000,A,5157.4580,N,00535.8757,E,2.83,112.13,290407,,*01
$GPGGA,123939.000,5157.4576,N,00535.8765,E,1,07,1.2,96.4,M,,,,0000*3A
$GPRMC,123939.000,A,5157.4576,N,00535.8765,E,1.81,115.84,290407,,*00
$GPGGA,123940.000,5157.4573,N,00535.8776,E,1,07,1.2,96.4,M,,,,0000*33
$GPRMC,123940.000,A,5157.4573,N,00535.8776,E,2.20,113.73,290407,,*0F
$GPGGA,123941.000,5157.4569,N,00535.8785,E,1,07,1.2,96.6,M,,,,0000*37
$GPRMC,123941.000,A,5157.4569,N,00535.8785,E,0.00,113.73,290407,,*09
$GPGGA,123942.000,5157.4569,N,00535.8785,E,1,07,1.2,96.6,M,,,,0000*34
$GPRMC,123942.000,A,5157.4569,N,00535.8785,E,0.00,113.73,290407,,*0A
$GPGGA,123943.000,5157.4569,N,00535.8785,E,1,07,1.2,96.6,M,,,,0000*35
$GPRMC,123943.000,A,5157.4569,N,00535.8785,E,0.00,113.73,290407,,*0B
$GPGGA,123944.000,5157.4569,N,00535.8785,E,1,07,1.2,96.6,M,,,,0000*32
$GPRMC,123944.000,A,5157.4569,N,00535.8785,E,0.00,113.73,290407,,*0C
$GPGGA,123945.000,5157.4569,N,00535.8785,E,1,07,1.2,96.6,M,,,,0000*33
$GPRMC,123945.000,A,5157.4569,N,00535.8785,E,0.00,113.73,290407,,*0D
$GPGGA,123946.000,5157.4569,N,00535.8785,E,1,07,1.2,96.6,M,,,,0000*30
$GPRMC,123946.000,A,5157.4569,N,00535.8785,E,0.00,113.73,290407,,*0E
$GPGGA,123947.000,5157.4569,N,00535.8785,E,1,07,1.2,96.6,M,,,,0000*31
$GPRMC,123947.000,A,5157.4569,N,00535.8785,E,0.00,113.73,290407,,*0F
$GPGGA,123948.000,5157.4569,N,00535.8785,E,1,07,1.2,96.6,M,,,,0000*3E
$GPRMC,123948.000,A,5157.4569,N,00535.8785,E,0.00,113.73,290407,,*00
$GPGGA,123949.000,5157.4569,N,00535.8785,E,1,07,1.2,96.6,M,,,,0000*3F
$GPRMC,123949.000,A,5157.4569,N,00535.8785,E,0.00,113.73,290407,,*01
$GPGGA,123950.000,5157.4569,N,00535.8785,E,1,07,1.2,96.6,M,,,,0000*37
$GPRMC,123950.000,A,5157.4569,N,00535.8785,E,0.00,113.73,290407,,*09
$GPGGA,123951.000,5157.4569,N,00535.8785,E,1,07,1.2,96.6,M,,,,0000*36
$GPRMC,123951.000,A,5157.4569,N,00535.8785,E,0.00,113.73,290407,,*08
$GPGGA,123952.000,5157.4570,N,00535.8890,E,1,07,1.2,95.8,M,,,,0000*3B
$GPRMC,123952.000,A,5157.4570,N,00535.8890,E,2.77,109.19,290407,,*0D
$GPGGA,123953.000,5157.4571,N,00535.8904,E,1,07,1.2,96.1,M,,,,0000*3D
$GPRMC,123953.000,A,5157.4571,N,00535.8904,E,3.36,98.80,290407,,*3C
$GPGGA,123954.000,5157.4575,N,00535.8915,E,1,07,1.2,96.2,M,,,,0000*3D
$GPRMC,123954.000,A,5157.4575,N,00535.8915,E,1.74,92.14,290407,,*3C
$GPGGA,123955.000,5157.4578,N,00535.8928,E,1,07,1.2,96.5,M,,,,0000*38
$GPRMC,123955.000,A,5157.4578,N,00535.8928,E,2.00,82.07,290407,,*3D
$GPGGA,123956.000,5157.4582,N,00535.8947,E,1,07,1.2,96.4,M,,,,0000*36
$GPRMC,123956.000,A,5157.4582,N,00535.8947,E,3.94,74.85,290407,,*3D
$GPGGA,123957.000,5157.4585,N,00535.8964,E,1,07,1.2,95.6,M,,,,0000*30
$GPRMC,123957.000,A,5157.4585,N,00535.8964,E,2.56,72.11,290407,,*3E
$GPGGA,123958.000,5157.4586,N,00535.8980,E,1,07,1.2,95.4,M,,,,0000*34
$GPRMC,123958.000,A,5157.4586,N,00535.8980,E,2.75,78.62,290407,,*37
$GPGGA,123959.000,5157.4586,N,00535.8992,E,1,07,1.2,95.5,M,,,,0000*37
$GPRMC,123959.000,A,5157.4586,N,00535.8992,E,2.19,84.21,290407,,*3B
$GPGGA,124000.000,5157.4583,N,00535.9005,E,1,07,1.2,94.8,M,,,,0000*3A
$GPRMC,124000.000,A,5157.4583,N,00535.9005,E,2.37,93.94,290407,,*3E
$GPGGA,124001.000,5157.4579,N,00535.9019,E,1,07,1.2,94.7,M,,,,0000*3C
$GPRMC,124001.000,A,5157.4579,N,00535.9019,E,3.16,102.43,290407,,*06
$GPGGA,124002.000,5157.4578,N,00535.9036,E,1,07,1.2,95.0,M,,,,0000*35
$GPRMC,124002.000,A,5157.4578,N,00535.9036,E,3.36,107.51,290407,,*0D
$GPGGA,124003.000,5157.4574,N,00535.9047,E,1,07,1.2,94.4,M,,,,0000*3B
$GPRMC,124003.000,A,5157.4574,N,00535.9047,E,1.87,117.71,290407,,*0D
$GPGGA,124004.000,5157.4571,N,00535.9062,E,1,07,1.2,94.1,M,,,,0000*3B
$GPRMC,124004.000,A,5157.4571,N,00535.9062,E,2.18,109.71,290407,,*02
$GPGGA,124005.000,5157.4571,N,00535.9070,E,1,07,1.2,93.9,M,,,,0000*36
$GPRMC,124005.000,A,5157.4571,N,00535.9070,E,0.00,109.71,290407,,*0B
$GPGGA,124006.000,5157.4571,N,00535.9070,E,1,07,1.2,93.9,M,,,,0000*35
$GPRMC,124006.000,A,5157.4571,N,00535.9070,E,0.00,109.71,290407,,*08
$GPGGA,124007.000,5157.4571,N,00535.9070,E,1,07,1.2,93.9,M,,,,0000*34
$GPRMC,124007.000,A,5157.4571,N,00535.9070,E,0.00,109.71,290407,,*09
$GPGGA,124008.000,5157.4571,N,00535.9070,E,1,07,1.2,93.9,M,,,,0000*3B
$GPRMC,124008.000,A,5157.4571,N,00535.9070,E,0.00,109.71,290407,,*06
$GPGGA,124009.000,5157.4571,N,00535.9070,E,1,07,1.2,93.9,M,,,,0000*3A
$GPRMC,124009.000,A,5157.4571,N,00535.9070,E,0.00,109.71,290407,,*07
$GPGGA,124010.000,5157.4571,N,00535.9070,E,1,07,1.2,93.9,M,,,,0000*32
$GPRMC,124010.000,A,5157.4571,N,00535.9070,E,0.00,109.71,290407,,*0F
$GPGGA,124011.000,5157.4581,N,00535.9145,E,1,07,1.2,91.9,M,,,,0000*39
$GPRMC,124011.000,A,5157.4581,N,00535.9145,E,2.70,104.08,290407,,*00
$GPGGA,124012.000,5157.4585,N,00535.9155,E,1,07,1.2,92.3,M,,,,0000*36
$GPRMC,124012.000,A,5157.4585,N,00535.9155,E,2.02,93.81,290407,,*3D
$GPGGA,124013.000,5157.4590,N,00535.9168,E,1,07,1.2,92.6,M,,,,0000*38
$GPRMC,124013.000,A,5157.4590,N,00535.9168,E,1.97,82.43,290407,,*37
$GPGGA,124014.000,5157.4591,N,00535.9180,E,1,07,1.2,92.6,M,,,,0000*38
$GPRMC,124014.000,A,5157.4591,N,00535.9180,E,0.00,82.43,290407,,*38
$GPGGA,124015.000,5157.4591,N,00535.9180,E,1,07,1.2,92.6,M,,,,0000*39
$GPRMC,124015.000,A,5157.4591,N,00535.9180,E,0.00,82.43,290407,,*39
$GPGGA,124016.000,5157.4591,N,00535.9180,E,1,07,1.2,92.6,M,,,,0000*3A
$GPRMC,124016.000,A,5157.4591,N,00535.9180,E,0.00,82.43,290407,,*3A
$GPGGA,124017.000,5157.4591,N,00535.9180,E,1,06,1.4,92.6,M,,,,0000*3C
$GPRMC,124017.000,A,5157.4591,N,00535.9180,E,0.00,82.43,290407,,*3B
$GPGGA,124018.000,5157.4591,N,00535.9180,E,1,07,1.2,92.6,M,,,,0000*34
$GPRMC,124018.000,A,5157.4591,N,00535.9180,E,0.00,82.43,290407,,*34
$GPGGA,124019.000,5157.4591,N,00535.9180,E,1,07,1.2,92.6,M,,,,0000*35
$GPRMC,124019.000,A,5157.4591,N,00535.9180,E,0.00,82.43,290407,,*35
$GPGGA,124020.000,5157.4591,N,00535.9180,E,1,07,1.2,92.6,M,,,,0000*3F
$GPRMC,124020.000,A,5157.4591,N,00535.9180,E,0.00,82.43,290407,,*3F
$GPGGA,124021.000,5157.4591,N,00535.9180,E,1,07,1.2,92.6,M,,,,0000*3E
$GPRMC,124021.000,A,5157.4591,N,00535.9180,E,0.00,82.43,290407,,*3E
$GPGGA,124022.000,5157.4591,N,00535.9180,E,1,07,1.2,92.6,M,,,,0000*3D
$GPRMC,124022.000,A,5157.4591,N,00535.9180,E,0.00,82.43,290407,,*3D
$GPGGA,124023.000,5157.4591,N,00535.9180,E,1,07,1.2,92.6,M,,,,0000*3C
$GPRMC,124023.000,A,5157.4591,N,00535.9180,E,0.00,82.43,290407,,*3C
$GPGGA,124024.000,5157.4591,N,00535.9180,E,1,07,1.2,92.6,M,,,,0000*3B
$GPRMC,124024.000,A,5157.4591,N,00535.9180,E,0.00,82.43,290407,,*3B
$GPGGA,124025.000,5157.4591,N,00535.9180,E,1,07,1.2,92.6,M,,,,0000*3A
$GPRMC,124025.000,A,5157.4591,N,00535.9180,E,0.00,82.43,290407,,*3A
$GPGGA,124026.000,5157.4591,N,00535.9180,E,1,07,1.2,92.6,M,,,,0000*39
$GPRMC,124026.000,A,5157.4591,N,00535.9180,E,0.00,82.43,290407,,*39
$GPGGA,124027.000,5157.4591,N,00535.9316,E,1,07,1.2,87.4,M,,,,0000*33
$GPRMC,124027.000,A,5157.4591,N,00535.9316,E,2.93,83.32,290407,,*3A
$GPGGA,124028.000,5157.4588,N,00535.9333,E,1,07,1.2,86.7,M,,,,0000*31
$GPRMC,124028.000,A,5157.4588,N,00535.9333,E,2.13,93.27,290407,,*37
$GPGGA,124029.000,5157.4583,N,00535.9347,E,1,07,1.2,86.5,M,,,,0000*3A
$GPRMC,124029.000,A,5157.4583,N,00535.9347,E,3.67,100.51,290407,,*06
$GPGGA,124030.000,5157.4580,N,00535.9358,E,1,07,1.2,86.4,M,,,,0000*3E
$GPRMC,124030.000,A,5157.4580,N,00535.9358,E,2.46,100.80,290407,,*0D
$GPGGA,124031.000,5157.4578,N,00535.9373,E,1,07,1.2,86.0,M,,,,0000*35
$GPRMC,124031.000,A,5157.4578,N,00535.9373,E,3.29,103.07,290407,,*06
$GPGGA,124032.000,5157.4580,N,00535.9393,E,1,07,1.2,85.0,M,,,,0000*3C
$GPRMC,124032.000,A,5157.4580,N,00535.9393,E,3.08,95.42,290407,,*30
$GPGGA,124033.000,5157.4584,N,00535.9406,E,1,07,1.2,84.4,M,,,,0000*37
$GPRMC,124033.000,A,5157.4584,N,00535.9406,E,2.14,92.13,290407,,*31
$GPGGA,124034.000,5157.4591,N,00535.9417,E,1,07,1.2,85.1,M,,,,0000*30
$GPRMC,124034.000,A,5157.4591,N,00535.9417,E,2.19,92.34,290407,,*3A
$GPGGA,124035.000,5157.4595,N,00535.9424,E,1,07,1.2,85.3,M,,,,0000*37
$GPRMC,124035.000,A,5157.4595,N,00535.9424,E,0.00,92.34,290407,,*35
$GPGGA,124036.000,5157.4595,N,00535.9424,E,1,07,1.2,85.3,M,,,,0000*34
$GPRMC,124036.000,A,5157.4595,N,00535.9424,E,0.00,92.34,290407,,*36
$GPGGA,124037.000,5157.4597,N,00535.9443,E,1,07,1.2,84.7,M,,,,0000*33
$GPRMC,124037.000,A,5157.4597,N,00535.9443,E,2.82,94.94,290407,,*30
$GPGGA,124038.000,5157.4599,N,00535.9459,E,1,07,1.2,84.5,M,,,,0000*3B
$GPRMC,124038.000,A,5157.4599,N,00535.9459,E,2.78,88.86,290407,,*31
$GPGGA,124039.000,5157.4601,N,00535.9473,E,1,07,1.2,84.0,M,,,,0000*35
$GPRMC,124039.000,A,5157.4601,N,00535.9473,E,3.44,89.80,290407,,*33
$GPGGA,124040.000,5157.4604,N,00535.9485,E,1,07,1.2,83.3,M,,,,0000*33
$GPRMC,124040.000,A,5157.4604,N,00535.9485,E,2.50,78.36,290407,,*36
$GPGGA,124041.000,5157.4606,N,00535.9495,E,1,07,1.2,83.1,M,,,,0000*33
$GPRMC,124041.000,A,5157.4606,N,00535.9495,E,2.71,78.41,290407,,*37
$GPGGA,124042.000,5157.4610,N,00535.9502,E,1,07,1.2,83.1,M,,,,0000*38
$GPRMC,124042.000,A,5157.4610,N,00535.9502,E,2.02,72.85,290407,,*3A
$GPGGA,124043.000,5157.4609,N,00535.9505,E,1,07,1.2,83.5,M,,,,0000*32
$GPRMC,124043.000,A,5157.4609,N,00535.9505,E,1.63,83.27,290407,,*36
$GPGGA,124044.000,5157.4606,N,00535.9515,E,1,07,1.2,83.7,M,,,,0000*39
$GPRMC,124044.000,A,5157.4606,N,00535.9515,E,0.00,83.27,290407,,*3B
$GPGGA,124045.000,5157.4601,N,00535.9530,E,1,07,1.2,84.4,M,,,,0000*3C
$GPRMC,124045.000,A,5157.4601,N,00535.9530,E,2.63,90.43,290407,,*3D
$GPGGA,124046.000,5157.4597,N,00535.9543,E,1,07,1.2,84.4,M,,,,0000*37
$GPRMC,124046.000,A,5157.4597,N,00535.9543,E,3.15,95.29,290407,,*3F
$GPGGA,124047.000,5157.4596,N,00535.9554,E,1,07,1.2,84.5,M,,,,0000*30
$GPRMC,124047.000,A,5157.4596,N,00535.9554,E,2.26,96.96,290407,,*3F
$GPGGA,124048.000,5157.4594,N,00535.9563,E,1,07,1.2,84.4,M,,,,0000*38
$GPRMC,124048.000,A,5157.4594,N,00535.9563,E,1.83,98.36,290407,,*3E
$GPGGA,124049.000,5157.4593,N,00535.9567,E,1,07,1.2,84.7,M,,,,0000*39
$GPRMC,124049.000,A,5157.4593,N,00535.9567,E,0.00,98.36,290407,,*36
$GPGGA,124050.000,5157.4593,N,00535.9567,E,1,07,1.2,84.7,M,,,,0000*31
$GPRMC,124050.000,A,5157.4593,N,00535.9567,E,0.00,98.36,290407,,*3E
$GPGGA,124051.000,5157.4593,N,00535.9567,E,1,07,1.2,84.7,M,,,,0000*30
$GPRMC,124051.000,A,5157.4593,N,00535.9567,E,0.00,98.36,290407,,*3F
$GPGGA,124052.000,5157.4593,N,00535.9567,E,1,07,1.2,84.7,M,,,,0000*33
$GPRMC,124052.000,A,5157.4593,N,00535.9567,E,0.00,98.36,290407,,*3C
$GPGGA,124053.000,5157.4595,N,00535.9614,E,1,07,1.2,86.7,M,,,,0000*31
$GPRMC,124053.000,A,5157.4595,N,00535.9614,E,3.27,92.62,290407,,*31
$GPGGA,124054.000,5157.4599,N,00535.9622,E,1,07,1.2,87.3,M,,,,0000*3A
$GPRMC,124054.000,A,5157.4599,N,00535.9622,E,1.17,73.70,290407,,*32
$GPGGA,124055.000,5157.4597,N,00535.9630,E,1,07,1.2,87.8,M,,,,0000*3D
$GPRMC,124055.000,A,5157.4597,N,00535.9630,E,1.54,84.57,290407,,*34
$GPGGA,124056.000,5157.4596,N,00535.9638,E,1,07,1.2,89.0,M,,,,0000*31
$GPRMC,124056.000,A,5157.4596,N,00535.9638,E,0.00,84.57,290407,,*3E
$GPGGA,124057.000,5157.4596,N,00535.9638,E,1,07,1.2,89.0,M,,,,0000*30
$GPRMC,124057.000,A,5157.4596,N,00535.9638,E,0.00,84.57,290407,,*3F
$GPGGA,124058.000,5157.4596,N,00535.9638,E,1,07,1.2,89.0,M,,,,0000*3F
$GPRMC,124058.000,A,5157.4596,N,00535.9638,E,0.00,84.57,290407,,*30
$GPGGA,124059.000,5157.4596,N,00535.9638,E,1,07,1.2,89.0,M,,,,0000*3E
$GPRMC,124059.000,A,5157.4596,N,00535.9638,E,0.00,84.57,290407,,*31
$GPGGA,124100.000,5157.4589,N,00535.9669,E,1,07,1.2,91.8,M,,,,0000*38
$GPRMC,124100.000,A,5157.4589,N,00535.9669,E,2.73,79.46,290407,,*32
$GPGGA,124101.000,5157.4586,N,00535.9684,E,1,07,1.2,91.9,M,,,,0000*34
$GPRMC,124101.000,A,5157.4586,N,00535.9684,E,1.67,77.43,290407,,*32
$GPGGA,124102.000,5157.4586,N,00535.9696,E,1,07,1.2,91.8,M,,,,0000*35
$GPRMC,124102.000,A,5157.4586,N,00535.9696,E,2.65,76.98,290407,,*34
$GPGGA,124103.000,5157.4591,N,00535.9711,E,1,06,1.3,92.6,M,,,,0000*31
$GPRMC,124103.000,A,5157.4591,N,00535.9711,E,2.05,76.33,290407,,*3A
$GPGGA,124104.000,5157.4594,N,00535.9724,E,1,07,1.2,92.2,M,,,,0000*31
$GPRMC,124104.000,A,5157.4594,N,00535.9724,E,1.95,72.78,290407,,*3F
$GPGGA,124105.000,5157.4598,N,00535.9739,E,1,07,1.2,92.6,M,,,,0000*34
$GPRMC,124105.000,A,5157.4598,N,00535.9739,E,0.00,72.78,290407,,*33
$GPGGA,124106.000,5157.4598,N,00535.9739,E,1,07,1.2,92.6,M,,,,0000*37
$GPRMC,124106.000,A,5157.4598,N,00535.9739,E,0.00,72.78,290407,,*30
$GPGGA,124107.000,5157.4598,N,00535.9739,E,1,07,1.2,92.6,M,,,,0000*36
$GPRMC,124107.000,A,5157.4598,N,00535.9739,E,0.00,72.78,290407,,*31
$GPGGA,124108.000,5157.4598,N,00535.9739,E,1,07,1.2,92.6,M,,,,0000*39
$GPRMC,124108.000,A,5157.4598,N,00535.9739,E,0.00,72.78,290407,,*3E
$GPGGA,124109.000,5157.4598,N,00535.9739,E,1,07,1.2,92.6,M,,,,0000*38
$GPRMC,124109.000,A,5157.4598,N,00535.9739,E,0.00,72.78,290407,,*3F
$GPGGA,124110.000,5157.4598,N,00535.9739,E,1,07,1.2,92.6,M,,,,0000*30
$GPRMC,124110.000,A,5157.4598,N,00535.9739,E,0.00,72.78,290407,,*37
$GPGGA,124111.000,5157.4587,N,00535.9784,E,1,07,1.2,93.0,M,,,,0000*3E
$GPRMC,124111.000,A,5157.4587,N,00535.9784,E,3.05,75.33,290407,,*30
$GPGGA,124112.000,5157.4586,N,00535.9802,E,1,07,1.2,93.0,M,,,,0000*3D
$GPRMC,124112.000,A,5157.4586,N,00535.9802,E,2.12,83.35,290407,,*3B
$GPGGA,124113.000,5157.4586,N,00535.9816,E,1,07,1.2,93.1,M,,,,0000*38
$GPRMC,124113.000,A,5157.4586,N,00535.9816,E,2.25,83.86,290407,,*33
$GPGGA,124114.000,5157.4586,N,00535.9825,E,1,07,1.2,93.8,M,,,,0000*36
$GPRMC,124114.000,A,5157.4586,N,00535.9825,E,0.00,83.86,290407,,*31
$GPGGA,124115.000,5157.4586,N,00535.9825,E,1,07,1.2,93.8,M,,,,0000*37
$GPRMC,124115.000,A,5157.4586,N,00535.9825,E,0.00,83.86,290407,,*30
$GPGGA,124116.000,5157.4586,N,00535.9825,E,1,07,1.2,93.8,M,,,,0000*34
$GPRMC,124116.000,A,5157.4586,N,00535.9825,E,0.00,83.86,290407,,*33
$GPGGA,124117.000,5157.4586,N,00535.9825,E,1,07,1.2,93.8,M,,,,0000*35
$GPRMC,124117.000,A,5157.4586,N,00535.9825,E,0.00,83.86,290407,,*32
$GPGGA,124118.000,5157.4586,N,00535.9825,E,1,07,1.2,93.8,M,,,,0000*3A
$GPRMC,124118.000,A,5157.4586,N,00535.9825,E,0.00,83.86,290407,,*3D
$GPGGA,124119.000,5157.4586,N,00535.9825,E,1,07,1.2,93.8,M,,,,0000*3B
$GPRMC,124119.000,A,5157.4586,N,00535.9825,E,0.00,83.86,290407,,*3C
$GPGGA,124120.000,5157.4586,N,00535.9825,E,1,07,1.2,93.8,M,,,,0000*31
$GPRMC,124120.000,A,5157.4586,N,00535.9825,E,0.00,83.86,290407,,*36
$GPGGA,124121.000,5157.4590,N,00535.9907,E,1,07,1.2,90.2,M,,,,0000*3F
$GPRMC,124121.000,A,5157.4590,N,00535.9907,E,2.74,86.86,290407,,*35
$GPGGA,124122.000,5157.4594,N,00535.9914,E,1,07,1.2,90.3,M,,,,0000*3B
$GPRMC,124122.000,A,5157.4594,N,00535.9914,E,3.12,75.60,290407,,*35
$GPGGA,124123.000,5157.4596,N,00535.9931,E,1,07,1.2,91.0,M,,,,0000*3D
$GPRMC,124123.000,A,5157.4596,N,00535.9931,E,3.04,76.13,290407,,*31
$GPGGA,124124.000,5157.4598,N,00535.9950,E,1,07,1.2,91.5,M,,,,0000*36
$GPRMC,124124.000,A,5157.4598,N,00535.9950,E,3.74,78.49,290407,,*39
$GPGGA,124125.000,5157.4598,N,00535.9968,E,1,07,1.2,91.9,M,,,,0000*30
$GPRMC,124125.000,A,5157.4598,N,00535.9968,E,2.79,82.52,290407,,*30
$GPGGA,124126.000,5157.4600,N,00535.9987,E,1,07,1.2,92.5,M,,,,0000*3F
$GPRMC,124126.000,A,5157.4600,N,00535.9987,E,3.21,81.03,290407,,*3B
$GPGGA,124127.000,5157.4604,N,00536.0010,E,1,07,1.2,91.9,M,,,,0000*38
$GPRMC,124127.000,A,5157.4604,N,00536.0010,E,3.28,83.59,290407,,*37
$GPGGA,124128.000,5157.4609,N,00536.0024,E,1,07,1.2,91.8,M,,,,0000*3C
$GPRMC,124128.000,A,5157.4609,N,00536.0024,E,3.66,75.33,290407,,*3D
$GPGGA,124129.000,5157.4609,N,00536.0041,E,1,07,1.2,91.8,M,,,,0000*3E
$GPRMC,124129.000,A,5157.4609,N,00536.0041,E,2.85,77.70,290407,,*36
$GPGGA,124130.000,5157.4607,N,00536.0052,E,1,07,1.2,91.1,M,,,,0000*33
$GPRMC,124130.000,A,5157.4607,N,00536.0052,E,2.66,89.02,290407,,*3B
$GPGGA,124131.000,5157.4605,N,00536.0059,E,1,07,1.2,91.0,M,,,,0000*3A
$GPRMC,124131.000,A,5157.4605,N,00536.0059,E,2.94,92.60,290407,,*30
$GPGGA,124132.000,5157.4600,N,00536.0068,E,1,07,1.2,90.9,M,,,,0000*36
$GPRMC,124132.000,A,5157.4600,N,00536.0068,E,2.41,98.99,290407,,*30
$GPGGA,124133.000,5157.4597,N,00536.0076,E,1,07,1.2,91.2,M,,,,0000*3F
$GPRMC,124133.000,A,5157.4597,N,00536.0076,E,1.46,99.82,290407,,*3C
$GPGGA,124134.000,5157.4592,N,00536.0084,E,1,07,1.2,90.8,M,,,,0000*3B
$GPRMC,124134.000,A,5157.4592,N,00536.0084,E,2.10,112.32,290407,,*0A
$GPGGA,124135.000,5157.4588,N,00536.0093,E,1,07,1.2,90.3,M,,,,0000*3C
$GPRMC,124135.000,A,5157.4588,N,00536.0093,E,0.00,112.32,290407,,*05
$GPGGA,124136.000,5157.4588,N,00536.0093,E,1,07,1.2,90.3,M,,,,0000*3F
$GPRMC,124136.000,A,5157.4588,N,00536.0093,E,0.00,112.32,290407,,*06
$GPGGA,124137.000,5157.4599,N,00536.0096,E,1,07,1.2,91.5,M,,,,0000*3C
$GPRMC,124137.000,A,5157.4599,N,00536.0096,E,2.71,90.41,290407,,*39
$GPGGA,124138.000,5157.4609,N,00536.0103,E,1,07,1.2,91.6,M,,,,0000*37
$GPRMC,124138.000,A,5157.4609,N,00536.0103,E,2.54,74.55,290407,,*39
$GPGGA,124139.000,5157.4614,N,00536.0122,E,1,07,1.2,91.7,M,,,,0000*38
$GPRMC,124139.000,A,5157.4614,N,00536.0122,E,3.51,70.84,290407,,*3B
$GPGGA,124140.000,5157.4622,N,00536.0144,E,1,07,1.2,91.2,M,,,,0000*36
$GPRMC,124140.000,A,5157.4622,N,00536.0144,E,3.70,68.16,290407,,*31
$GPGGA,124141.000,5157.4631,N,00536.0166,E,1,07,1.2,93.8,M,,,,0000*3D
$GPRMC,124141.000,A,5157.4631,N,00536.0166,E,4.36,71.99,290407,,*38
$GPGGA,124142.000,5157.4632,N,00536.0190,E,1,07,1.2,93.7,M,,,,0000*3B
$GPRMC,124142.000,A,5157.4632,N,00536.0190,E,4.17,79.59,290407,,*36
$GPGGA,124143.000,5157.4629,N,00536.0206,E,1,07,1.2,93.1,M,,,,0000*3A
$GPRMC,124143.000,A,5157.4629,N,00536.0206,E,3.08,85.65,290407,,*34
$GPGGA,083855.000,5217.9828,N,00451.8008,E,1,09,1.0,-0.0,M,47.0,M,,0000*73 
$GPGGA,083856.000,5217.9783,N,00451.8200,E,1,09,1.0,0.0,M,47.0,M,,0000*59 
$GPGGA,083857.000,5217.9739,N,00451.8391,E,1,09,1.0,0.1,M,47.0,M,,0000*51 
$GPGGA,124144.000,5157.4626,N,00536.0220,E,1,07,1.2,92.5,M,,,,0000*33
$GPRMC,124144.000,A,5157.4626,N,00536.0220,E,2.49,84.94,290407,,*33
$GPGGA,124145.000,5157.4623,N,00536.0231,E,1,07,1.2,92.1,M,,,,0000*33
$GPRMC,124145.000,A,5157.4623,N,00536.0231,E,2.42,86.64,290407,,*31
$GPGGA,124146.000,5157.4623,N,00536.0244,E,1,07,1.2,92.1,M,,,,0000*32
$GPRMC,124146.000,A,5157.4623,N,00536.0244,E,2.69,76.98,290407,,*35
$GPGGA,124147.000,5157.4627,N,00536.0261,E,1,07,1.2,91.9,M,,,,0000*3B
$GPRMC,124147.000,A,5157.4627,N,00536.0261,E,3.24,71.45,290407,,*38
$GPGGA,124148.000,5157.4629,N,00536.0276,E,1,07,1.2,91.8,M,,,,0000*3D
$GPRMC,124148.000,A,5157.4629,N,00536.0276,E,3.72,73.72,290407,,*3A
$GPGGA,124149.000,5157.4629,N,00536.0290,E,1,07,1.2,91.4,M,,,,0000*38
$GPRMC,124149.000,A,5157.4629,N,00536.0290,E,2.71,74.69,290407,,*3C
$GPGGA,124150.000,5157.4624,N,00536.0299,E,1,07,1.2,90.4,M,,,,0000*35
$GPRMC,124150.000,A,5157.4624,N,00536.0299,E,2.88,86.75,290407,,*36
$GPGGA,124151.000,5157.4622,N,00536.0307,E,1,07,1.2,89.3,M,,,,0000*3B
$GPRMC,124151.000,A,5157.4622,N,00536.0307,E,1.87,89.51,290407,,*32
$GPGGA,124152.000,5157.4621,N,00536.0313,E,1,07,1.2,89.0,M,,,,0000*3D
$GPRMC,124152.000,A,5157.4621,N,00536.0313,E,1.62,101.73,290407,,*0D
$GPGGA,124153.000,5157.4617,N,00536.0329,E,1,07,1.2,88.6,M,,,,0000*37
$GPRMC,124153.000,A,5157.4617,N,00536.0329,E,0.00,101.73,290407,,*05
$GPGGA,124154.000,5157.4617,N,00536.0341,E,1,07,1.2,87.5,M,,,,0000*32
$GPRMC,124154.000,A,5157.4617,N,00536.0341,E,2.58,98.88,290407,,*36
$GPGGA,124155.000,5157.4619,N,00536.0359,E,1,07,1.2,87.6,M,,,,0000*37
$GPRMC,124155.000,A,5157.4619,N,00536.0359,E,3.41,93.87,290407,,*3D
$GPGGA,124156.000,5157.4623,N,00536.0376,E,1,07,1.2,87.4,M,,,,0000*32
